hotel_name,rank,restaurant_name,restaurant_score,rating,price,price_level,distance_m,cuisines,restaurant_lat,restaurant_lon,url
AC Hotel New York Times Square,1,Upside Pizza,0.884,3.7,$,1.0,84.9,"pizza,italian",40.7550912,-73.9911494,https://www.yelp.com/biz/upside-pizza-new-york?adjust_creative=7L58B9086saOW4zCCye5mg&utm_campaign=yelp_api_v3&utm_medium=api_v3_business_search&utm_source=7L58B9086saOW4zCCye5mg
AC Hotel New York Times Square,2,Modern Tea & Salad,0.815,5.0,$$,2.0,120.1,"bubbletea,salad",40.75538,-73.99155,https://www.yelp.com/biz/modern-tea-and-salad-new-york?adjust_creative=7L58B9086saOW4zCCye5mg&utm_campaign=yelp_api_v3&utm_medium=api_v3_business_search&utm_source=7L58B9086saOW4zCCye5mg
AC Hotel New York Times Square,3,Awesum Dimsum,0.797,4.4,$$,2.0,36.8,"dimsum,cantonese",40.7557,-73.9907,https://www.yelp.com/biz/awesum-dimsum-new-york-5?adjust_creative=7L58B9086saOW4zCCye5mg&utm_campaign=yelp_api_v3&utm_medium=api_v3_business_search&utm_source=7L58B9086saOW4zCCye5mg
AC Hotel New York Times Square,4,BTS - Bagel To Sandwich,0.786,4.5,$$,2.0,100.4,"breakfast_brunch,bagels,bakeries",40.75532,-73.98949,https://www.yelp.com/biz/bts-bagel-to-sandwich-new-york?adjust_creative=7L58B9086saOW4zCCye5mg&utm_campaign=yelp_api_v3&utm_medium=api_v3_business_search&utm_source=7L58B9086saOW4zCCye5mg
AC Hotel New York Times Square,5,Maiz,0.782,4.2,$$,2.0,41.7,mexican,40.755414979327306,-73.99069290204672,https://www.yelp.com/biz/maiz-new-york?adjust_creative=7L58B9086saOW4zCCye5mg&utm_campaign=yelp_api_v3&utm_medium=api_v3_business_search&utm_source=7L58B9086saOW4zCCye5mg
Aloft Manhattan Downtown - Financial District,1,Lil Chef Mama,0.932,4.5,$$,2.0,115.3,thai,40.7086823,-74.0051718664848,https://www.yelp.com/biz/lil-chef-mama-new-york?adjust_creative=7L58B9086saOW4zCCye5mg&utm_campaign=yelp_api_v3&utm_medium=api_v3_business_search&utm_source=7L58B9086saOW4zCCye5mg
Aloft Manhattan Downtown - Financial District,2,Kesté Pizza & Vino,0.912,4.2,$$,2.0,111.4,"pizza,italian,wine_bars",40.709135,-74.004645,https://www.yelp.com/biz/kest%C3%A9-pizza-and-vino-new-york-5?adjust_creative=7L58B9086saOW4zCCye5mg&utm_campaign=yelp_api_v3&utm_medium=api_v3_business_search&utm_source=7L58B9086saOW4zCCye5mg
Aloft Manhattan Downtown - Financial District,3,Rosella's Pizzeria,0.873,3.4,$,1.0,50.2,"pizza,italian",40.710117,-74.005661,https://www.yelp.com/biz/rosellas-pizzeria-new-york?adjust_creative=7L58B9086saOW4zCCye5mg&utm_campaign=yelp_api_v3&utm_medium=api_v3_business_search&utm_source=7L58B9086saOW4zCCye5mg
Aloft Manhattan Downtown - Financial District,4,Solace,0.828,5.0,,,73.7,"italian,pizza",40.7105,-74.00809,https://www.yelp.com/biz/solace-new-york?adjust_creative=7L58B9086saOW4zCCye5mg&utm_campaign=yelp_api_v3&utm_medium=api_v3_business_search&utm_source=7L58B9086saOW4zCCye5mg
Aloft Manhattan Downtown - Financial District,5,Teriyaki on Wheels,0.826,5.0,,,82.0,"japanese,foodtrucks",40.709001391467964,-74.00518342758907,https://www.yelp.com/biz/teriyaki-on-wheels-new-york?adjust_creative=7L58B9086saOW4zCCye5mg&utm_campaign=yelp_api_v3&utm_medium=api_v3_business_search&utm_source=7L58B9086saOW4zCCye5mg
Aloft New York Brooklyn,1,Avere Ristorante,0.867,3.6,$$$,3.0,120.6,italian,40.6915079,-73.9849649,https://www.yelp.com/biz/avere-ristorante-brooklyn?adjust_creative=7L58B9086saOW4zCCye5mg&utm_campaign=yelp_api_v3&utm_medium=api_v3_business_search&utm_source=7L58B9086saOW4zCCye5mg
Aloft New York Brooklyn,2,Hibachi King Express,0.796,2.5,$,1.0,99.4,"japanese,sushi",40.691662,-73.986492,https://www.yelp.com/biz/hibachi-king-express-brooklyn?adjust_creative=7L58B9086saOW4zCCye5mg&utm_campaign=yelp_api_v3&utm_medium=api_v3_business_search&utm_source=7L58B9086saOW4zCCye5mg
Aloft New York Brooklyn,3,Bread & Spread,0.782,4.4,$$,2.0,89.4,"coffee,breakfast_brunch,sandwiches",40.69175403159706,-73.98514841880406,https://www.yelp.com/biz/bread-and-spread-brooklyn-2?adjust_creative=7L58B9086saOW4zCCye5mg&utm_campaign=yelp_api_v3&utm_medium=api_v3_business_search&utm_source=7L58B9086saOW4zCCye5mg
Aloft New York Brooklyn,4,Nan Xiang Express,0.769,4.2,$$,2.0,87.3,"shanghainese,dimsum,noodles",40.691816,-73.986564,https://www.yelp.com/biz/nan-xiang-express-brooklyn-2?adjust_creative=7L58B9086saOW4zCCye5mg&utm_campaign=yelp_api_v3&utm_medium=api_v3_business_search&utm_source=7L58B9086saOW4zCCye5mg
Aloft New York Brooklyn,5,Sound + Fury Brewery and Kitchen,0.763,4.1,$$,2.0,83.2,"pizza,brewpubs",40.69165,-73.98603,https://www.yelp.com/biz/sound-fury-brewery-and-kitchen-brooklyn-2?adjust_creative=7L58B9086saOW4zCCye5mg&utm_campaign=yelp_api_v3&utm_medium=api_v3_business_search&utm_source=7L58B9086saOW4zCCye5mg
Courtyard New York Manhattan/Midtown East,1,Gu Japanese Fusion Sushi & Bar,0.912,3.9,$$,2.0,38.2,"japanese,sushi,bars",40.75743,-73.97042,https://www.yelp.com/biz/gu-japanese-fusion-sushi-and-bar-new-york?adjust_creative=7L58B9086saOW4zCCye5mg&utm_campaign=yelp_api_v3&utm_medium=api_v3_business_search&utm_source=7L58B9086saOW4zCCye5mg
Courtyard New York Manhattan/Midtown East,2,Nippon,0.905,3.8,$$$,3.0,38.2,"sushi,japanese,desserts",40.75743,-73.97042,https://www.yelp.com/biz/nippon-new-york?adjust_creative=7L58B9086saOW4zCCye5mg&utm_campaign=yelp_api_v3&utm_medium=api_v3_business_search&utm_source=7L58B9086saOW4zCCye5mg
Courtyard New York Manhattan/Midtown East,3,Nare Sushi,0.896,3.8,$$$,3.0,68.2,"sushi,japanese,cocktailbars",40.75719922066617,-73.96918797126257,https://www.yelp.com/biz/nare-sushi-new-york?adjust_creative=7L58B9086saOW4zCCye5mg&utm_campaign=yelp_api_v3&utm_medium=api_v3_business_search&utm_source=7L58B9086saOW4zCCye5mg
Courtyard New York Manhattan/Midtown East,4,Sushi Jun,0.826,2.8,$,1.0,69.0,"japanese,korean",40.75722,-73.96919,https://www.yelp.com/biz/sushi-jun-new-york-2?adjust_creative=7L58B9086saOW4zCCye5mg&utm_campaign=yelp_api_v3&utm_medium=api_v3_business_search&utm_source=7L58B9086saOW4zCCye5mg
Courtyard New York Manhattan/Midtown East,5,52nd and Lexington Breakfast Cart,0.822,5.0,$,1.0,95.3,"coffee,breakfast_brunch",40.757865,-73.970748,https://www.yelp.com/biz/52nd-and-lexington-breakfast-cart-new-york?adjust_creative=7L58B9086saOW4zCCye5mg&utm_campaign=yelp_api_v3&utm_medium=api_v3_business_search&utm_source=7L58B9086saOW4zCCye5mg
Courtyard New York Manhattan/SoHo,1,Bar Mutsumi,0.818,5.0,,,109.7,"japanese,whiskeybars,wine_bars",40.72663,-74.00626,https://www.yelp.com/biz/bar-mutsumi-new-york?adjust_creative=7L58B9086saOW4zCCye5mg&utm_campaign=yelp_api_v3&utm_medium=api_v3_business_search&utm_source=7L58B9086saOW4zCCye5mg
Courtyard New York Manhattan/SoHo,2,Banaro,0.803,5.0,,,167.3,"fooddeliveryservices,italian",40.72626,-74.00496,https://www.yelp.com/biz/banaro-new-york?adjust_creative=7L58B9086saOW4zCCye5mg&utm_campaign=yelp_api_v3&utm_medium=api_v3_business_search&utm_source=7L58B9086saOW4zCCye5mg
Courtyard New York Manhattan/SoHo,3,Miomio,0.798,4.7,,,108.6,"desserts,japanese,breakfast_brunch",40.72669555101995,-74.0064252,https://www.yelp.com/biz/miomio-new-york-2?adjust_creative=7L58B9086saOW4zCCye5mg&utm_campaign=yelp_api_v3&utm_medium=api_v3_business_search&utm_source=7L58B9086saOW4zCCye5mg
Courtyard New York Manhattan/SoHo,4,MakiMaki Sushi,0.783,4.4,,,85.1,"sushi,japanese,catering",40.72766470000001,-74.0067845,https://www.yelp.com/biz/makimaki-sushi-new-york-6?adjust_creative=7L58B9086saOW4zCCye5mg&utm_campaign=yelp_api_v3&utm_medium=api_v3_business_search&utm_source=7L58B9086saOW4zCCye5mg
Courtyard New York Manhattan/SoHo,5,Port Sa'id,0.762,4.1,$$$,3.0,85.3,"mediterranean,vinyl_records,tapasmallplates",40.72767644691845,-74.0067845,https://www.yelp.com/biz/port-said-new-york?adjust_creative=7L58B9086saOW4zCCye5mg&utm_campaign=yelp_api_v3&utm_medium=api_v3_business_search&utm_source=7L58B9086saOW4zCCye5mg
Courtyard New York Manhattan/Times Square West,1,Azuki,0.83,3.0,$$,2.0,105.2,"japanese,sushi,salad",40.75357639508275,-73.99227161605849,https://www.yelp.com/biz/azuki-new-york-3?adjust_creative=7L58B9086saOW4zCCye5mg&utm_campaign=yelp_api_v3&utm_medium=api_v3_business_search&utm_source=7L58B9086saOW4zCCye5mg
Courtyard New York Manhattan/Times Square West,2,Ninjaki,0.819,5.0,,,107.1,"japanese,foodtrucks,halal",40.755335,-73.993192,https://www.yelp.com/biz/ninjaki-new-york-3?adjust_creative=7L58B9086saOW4zCCye5mg&utm_campaign=yelp_api_v3&utm_medium=api_v3_business_search&utm_source=7L58B9086saOW4zCCye5mg
Courtyard New York Manhattan/Times Square West,3,Carmen's Kitchen,0.787,4.3,$$,2.0,46.1,"chickenshop,latin",40.7547995,-73.9921988,https://www.yelp.com/biz/carmens-kitchen-new-york?adjust_creative=7L58B9086saOW4zCCye5mg&utm_campaign=yelp_api_v3&utm_medium=api_v3_business_search&utm_source=7L58B9086saOW4zCCye5mg
Courtyard New York Manhattan/Times Square West,4,KPOT Korean BBQ & Hot Pot,0.784,4.3,$$$,3.0,56.2,"korean,bbq,hotpot",40.755,-73.99256,https://www.yelp.com/biz/kpot-korean-bbq-and-hot-pot-new-york-3?adjust_creative=7L58B9086saOW4zCCye5mg&utm_campaign=yelp_api_v3&utm_medium=api_v3_business_search&utm_source=7L58B9086saOW4zCCye5mg
Courtyard New York Manhattan/Times Square West,5,Ramini Espresso Bar & Cafe,0.781,4.4,$,1.0,92.1,"coffee,cafes",40.7536963373423,-73.9910175651312,https://www.yelp.com/biz/ramini-espresso-bar-and-cafe-new-york?adjust_creative=7L58B9086saOW4zCCye5mg&utm_campaign=yelp_api_v3&utm_medium=api_v3_business_search&utm_source=7L58B9086saOW4zCCye5mg
Courtyard New York Manhattan/Upper East Side,1,Koo Thai,0.951,4.5,$$,2.0,46.7,"bubbletea,thai,vietnamese",40.78013496548437,-73.9466592,https://www.yelp.com/biz/koo-thai-new-york-2?adjust_creative=7L58B9086saOW4zCCye5mg&utm_campaign=yelp_api_v3&utm_medium=api_v3_business_search&utm_source=7L58B9086saOW4zCCye5mg
Courtyard New York Manhattan/Upper East Side,2,Yummy Japanese Grill & Sushi Bar,0.867,3.3,$$,2.0,47.1,"sushi,japanese",40.780097,-73.946632,https://www.yelp.com/biz/yummy-japanese-grill-and-sushi-bar-new-york?adjust_creative=7L58B9086saOW4zCCye5mg&utm_campaign=yelp_api_v3&utm_medium=api_v3_business_search&utm_source=7L58B9086saOW4zCCye5mg
Courtyard New York Manhattan/Upper East Side,3,Akami,0.845,3.1,$$,2.0,75.4,"japanese,sushi,diners",40.78049561470769,-73.9469539,https://www.yelp.com/biz/akami-new-york-2?adjust_creative=7L58B9086saOW4zCCye5mg&utm_campaign=yelp_api_v3&utm_medium=api_v3_business_search&utm_source=7L58B9086saOW4zCCye5mg
Courtyard New York Manhattan/Upper East Side,4,Le Viet Cafe,0.844,3.8,$$,2.0,266.9,"vietnamese,thai,asianfusion",40.78111,-73.94902,https://www.yelp.com/biz/le-viet-cafe-new-york?adjust_creative=7L58B9086saOW4zCCye5mg&utm_campaign=yelp_api_v3&utm_medium=api_v3_business_search&utm_source=7L58B9086saOW4zCCye5mg
Courtyard New York Manhattan/Upper East Side,5,Delizia 92,0.84,3.7,$,1.0,253.8,"pizza,italian,catering",40.78152,-73.94886,https://www.yelp.com/biz/delizia-92-new-york?adjust_creative=7L58B9086saOW4zCCye5mg&utm_campaign=yelp_api_v3&utm_medium=api_v3_business_search&utm_source=7L58B9086saOW4zCCye5mg
Courtyard New York Queens/Fresh Meadows,1,Tokyo Hibachi Steak House & Sushi,0.874,3.6,$$,2.0,97.5,"japanese,steak",40.7397786666437,-73.7898874282837,https://www.yelp.com/biz/tokyo-hibachi-steak-house-and-sushi-fresh-meadows?adjust_creative=7L58B9086saOW4zCCye5mg&utm_campaign=yelp_api_v3&utm_medium=api_v3_business_search&utm_source=7L58B9086saOW4zCCye5mg
Courtyard New York Queens/Fresh Meadows,2,Fuzi Pasta Co,0.771,4.4,$$,2.0,881.8,"pastashops,italian",40.732872749986974,-73.7945689,https://www.yelp.com/biz/fuzi-pasta-co-fresh-meadows?adjust_creative=7L58B9086saOW4zCCye5mg&utm_campaign=yelp_api_v3&utm_medium=api_v3_business_search&utm_source=7L58B9086saOW4zCCye5mg
Courtyard New York Queens/Fresh Meadows,3,Brother’s Pizzeria,0.747,4.2,$,1.0,166.9,pizza,40.7398,-73.788972,https://www.yelp.com/biz/brother-s-pizzeria-fresh-meadows-2?adjust_creative=7L58B9086saOW4zCCye5mg&utm_campaign=yelp_api_v3&utm_medium=api_v3_business_search&utm_source=7L58B9086saOW4zCCye5mg
Courtyard New York Queens/Fresh Meadows,4,Bagel Oasis,0.727,3.7,$,1.0,109.1,"bagels,delis",40.739435,-73.790506,https://www.yelp.com/biz/bagel-oasis-fresh-meadows-3?adjust_creative=7L58B9086saOW4zCCye5mg&utm_campaign=yelp_api_v3&utm_medium=api_v3_business_search&utm_source=7L58B9086saOW4zCCye5mg
Courtyard New York Queens/Fresh Meadows,5,Halal Boyz,0.727,3.7,$,1.0,109.8,"halal,hotdogs",40.7394059408154,-73.7902313,https://www.yelp.com/biz/halal-boyz-fresh-meadows?adjust_creative=7L58B9086saOW4zCCye5mg&utm_campaign=yelp_api_v3&utm_medium=api_v3_business_search&utm_source=7L58B9086saOW4zCCye5mg
Courtyard by Marriott New York Queens/Jamaica,1,Guy R  Deli,0.714,4.4,$,1.0,363.1,delis,40.69958,-73.793584,https://www.yelp.com/biz/guy-r-deli-jamaica?adjust_creative=7L58B9086saOW4zCCye5mg&utm_campaign=yelp_api_v3&utm_medium=api_v3_business_search&utm_source=7L58B9086saOW4zCCye5mg
Courtyard by Marriott New York Queens/Jamaica,2,Lodrika Bar and Lounge,0.693,5.0,,,23.1,"lounges,venues,tradamerican",40.701782,-73.790063,https://www.yelp.com/biz/lodrika-bar-and-lounge-queens-2?adjust_creative=7L58B9086saOW4zCCye5mg&utm_campaign=yelp_api_v3&utm_medium=api_v3_business_search&utm_source=7L58B9086saOW4zCCye5mg
Courtyard by Marriott New York Queens/Jamaica,3,Kassim's Bakery & Take Out Restaurant,0.625,3.8,$$,2.0,596.6,"bakeries,caribbean",40.706908,-73.789675,https://www.yelp.com/biz/kassims-bakery-and-take-out-restaurant-jamaica?adjust_creative=7L58B9086saOW4zCCye5mg&utm_campaign=yelp_api_v3&utm_medium=api_v3_business_search&utm_source=7L58B9086saOW4zCCye5mg
Courtyard by Marriott New York Queens/Jamaica,4,Kennedy Fried Chicken,0.612,3.5,$,1.0,551.9,restaurants,40.706277,-73.791864,https://www.yelp.com/biz/kennedy-fried-chicken-jamaica?adjust_creative=7L58B9086saOW4zCCye5mg&utm_campaign=yelp_api_v3&utm_medium=api_v3_business_search&utm_source=7L58B9086saOW4zCCye5mg
Courtyard by Marriott New York Queens/Jamaica,5,Nature's Detox,0.606,3.5,$,1.0,585.8,"juicebars,delis",40.70659380502847,-73.79241258060584,https://www.yelp.com/biz/natures-detox-jamaica?adjust_creative=7L58B9086saOW4zCCye5mg&utm_campaign=yelp_api_v3&utm_medium=api_v3_business_search&utm_source=7L58B9086saOW4zCCye5mg
Fairfield Inn & Suites New York Brooklyn,1,Mozzarella NYC,0.752,5.0,,,380.8,"fooddeliveryservices,italian",40.68259404416556,-73.97928505806213,https://www.yelp.com/biz/mozzarella-nyc-brooklyn?adjust_creative=7L58B9086saOW4zCCye5mg&utm_campaign=yelp_api_v3&utm_medium=api_v3_business_search&utm_source=7L58B9086saOW4zCCye5mg
Fairfield Inn & Suites New York Brooklyn,2,Ossobuco La Cucina Di Milano,0.752,5.0,,,380.8,"fooddeliveryservices,italian,steak",40.68259404416556,-73.97928505806213,https://www.yelp.com/biz/ossobuco-la-cucina-di-milano-brooklyn?adjust_creative=7L58B9086saOW4zCCye5mg&utm_campaign=yelp_api_v3&utm_medium=api_v3_business_search&utm_source=7L58B9086saOW4zCCye5mg
Fairfield Inn & Suites New York Brooklyn,3,Threes Brewing,0.75,4.1,$$,2.0,128.3,"venues,burgers,beerbar",40.6797218322754,-73.9821624755859,https://www.yelp.com/biz/threes-brewing-brooklyn?adjust_creative=7L58B9086saOW4zCCye5mg&utm_campaign=yelp_api_v3&utm_medium=api_v3_business_search&utm_source=7L58B9086saOW4zCCye5mg
Fairfield Inn & Suites New York Brooklyn,4,Mirror Tea & Sake House,0.74,4.7,$$,2.0,337.3,"cafes,tea,venues",40.678874,-73.986211,https://www.yelp.com/biz/mirror-tea-and-sake-house-brooklyn-2?adjust_creative=7L58B9086saOW4zCCye5mg&utm_campaign=yelp_api_v3&utm_medium=api_v3_business_search&utm_source=7L58B9086saOW4zCCye5mg
Fairfield Inn & Suites New York Brooklyn,5,Ghenet,0.719,4.0,$$,2.0,220.0,"ethiopian,african",40.67911505901633,-73.98149370339596,https://www.yelp.com/biz/ghenet-brooklyn-brooklyn?adjust_creative=7L58B9086saOW4zCCye5mg&utm_campaign=yelp_api_v3&utm_medium=api_v3_business_search&utm_source=7L58B9086saOW4zCCye5mg
Fairfield Inn & Suites New York Manhattan/Times Square South,1,Vito's Slices and Ices,0.938,4.6,$,1.0,119.3,"pizza,shavedice,italian",40.7545,-73.99528,https://www.yelp.com/biz/vitos-slices-and-ices-new-york-2?adjust_creative=7L58B9086saOW4zCCye5mg&utm_campaign=yelp_api_v3&utm_medium=api_v3_business_search&utm_source=7L58B9086saOW4zCCye5mg
Fairfield Inn & Suites New York Manhattan/Times Square South,2,Sergimmo Salumeria,0.906,4.2,$$,2.0,132.4,"italian,sandwiches",40.754296,-73.995498,https://www.yelp.com/biz/sergimmo-salumeria-new-york?adjust_creative=7L58B9086saOW4zCCye5mg&utm_campaign=yelp_api_v3&utm_medium=api_v3_business_search&utm_source=7L58B9086saOW4zCCye5mg
Fairfield Inn & Suites New York Manhattan/Times Square South,3,Longo Bros,0.896,4.0,$$$,3.0,116.7,"pizza,cocktailbars,italian",40.754825,-73.994862,https://www.yelp.com/biz/longo-bros-new-york?adjust_creative=7L58B9086saOW4zCCye5mg&utm_campaign=yelp_api_v3&utm_medium=api_v3_business_search&utm_source=7L58B9086saOW4zCCye5mg
Fairfield Inn & Suites New York Manhattan/Times Square South,4,Zoob Zib Thai Authentic Noodle Bar,0.896,4.0,$$,2.0,118.2,"thai,noodles",40.75438,-73.99536,https://www.yelp.com/biz/zoob-zib-thai-authentic-noodle-bar-new-york-2?adjust_creative=7L58B9086saOW4zCCye5mg&utm_campaign=yelp_api_v3&utm_medium=api_v3_business_search&utm_source=7L58B9086saOW4zCCye5mg
Fairfield Inn & Suites New York Manhattan/Times Square South,5,Sushi Star,0.88,3.8,$$,2.0,124.7,"sushi,japanese",40.75444,-73.99532,https://www.yelp.com/biz/sushi-star-new-york?adjust_creative=7L58B9086saOW4zCCye5mg&utm_campaign=yelp_api_v3&utm_medium=api_v3_business_search&utm_source=7L58B9086saOW4zCCye5mg
Fairfield Inn & Suites New York Midtown Manhattan/Penn Station,1,Trattoria Bianca,0.838,3.3,$$,2.0,152.5,italian,40.75263,-73.99338,https://www.yelp.com/biz/trattoria-bianca-new-york-3?adjust_creative=7L58B9086saOW4zCCye5mg&utm_campaign=yelp_api_v3&utm_medium=api_v3_business_search&utm_source=7L58B9086saOW4zCCye5mg
Fairfield Inn & Suites New York Midtown Manhattan/Penn Station,2,Pokeworks,0.797,4.4,$$,2.0,35.8,"poke,salad,hawaiian",40.75258,-73.99551,https://www.yelp.com/biz/pokeworks-new-york-18?adjust_creative=7L58B9086saOW4zCCye5mg&utm_campaign=yelp_api_v3&utm_medium=api_v3_business_search&utm_source=7L58B9086saOW4zCCye5mg
Fairfield Inn & Suites New York Midtown Manhattan/Penn Station,3,Bar Primi Penn District,0.767,4.1,,,68.8,"italian,bars,pizza",40.7524583,-73.9954517,https://www.yelp.com/biz/bar-primi-penn-district-new-york-3?adjust_creative=7L58B9086saOW4zCCye5mg&utm_campaign=yelp_api_v3&utm_medium=api_v3_business_search&utm_source=7L58B9086saOW4zCCye5mg
Fairfield Inn & Suites New York Midtown Manhattan/Penn Station,4,NAYA,0.766,4.2,$$,2.0,94.9,"mideastern,mediterranean",40.75162820264864,-73.99587334448617,https://www.yelp.com/biz/naya-new-york-60?adjust_creative=7L58B9086saOW4zCCye5mg&utm_campaign=yelp_api_v3&utm_medium=api_v3_business_search&utm_source=7L58B9086saOW4zCCye5mg
Fairfield Inn & Suites New York Midtown Manhattan/Penn Station,5,Cha Cha Matcha,0.76,4.2,$,1.0,118.7,"cafes,coffee,juicebars",40.75121209941116,-73.9953871,https://www.yelp.com/biz/cha-cha-matcha-new-york-17?adjust_creative=7L58B9086saOW4zCCye5mg&utm_campaign=yelp_api_v3&utm_medium=api_v3_business_search&utm_source=7L58B9086saOW4zCCye5mg
Fairfield Inn & Suites New York Queens/ Fresh Meadows,1,Piccolo Sogno,0.696,4.0,$$,2.0,1273.8,"italian,pizza",40.7524089,-73.78575760061169,https://www.yelp.com/biz/piccolo-sogno-flushing?adjust_creative=7L58B9086saOW4zCCye5mg&utm_campaign=yelp_api_v3&utm_medium=api_v3_business_search&utm_source=7L58B9086saOW4zCCye5mg
Fairfield Inn & Suites New York Queens/ Fresh Meadows,2,Fortune Garden,0.497,3.3,$,1.0,1274.8,"chinese,seafood",40.7524402,-73.7857987,https://www.yelp.com/biz/fortune-garden-flushing?adjust_creative=7L58B9086saOW4zCCye5mg&utm_campaign=yelp_api_v3&utm_medium=api_v3_business_search&utm_source=7L58B9086saOW4zCCye5mg
Fairfield Inn & Suites New York Queens/ Fresh Meadows,3,American’s Favorite Deli,0.49,3.2,$,1.0,1279.4,delis,40.752449,-73.785905,https://www.yelp.com/biz/american-s-favorite-deli-flushing-2?adjust_creative=7L58B9086saOW4zCCye5mg&utm_campaign=yelp_api_v3&utm_medium=api_v3_business_search&utm_source=7L58B9086saOW4zCCye5mg
Fairfield Inn & Suites New York Queens/ Fresh Meadows,4,Ace Sushi,0.266,0.0,,,1270.2,"sushi,salad,japanese",40.75236099203117,-73.78596606004919,https://www.yelp.com/biz/ace-sushi-queens?adjust_creative=7L58B9086saOW4zCCye5mg&utm_campaign=yelp_api_v3&utm_medium=api_v3_business_search&utm_source=7L58B9086saOW4zCCye5mg
Fairfield Inn & Suites New York Queens/ Fresh Meadows,5,Matsarang,0.116,0.0,,,1270.2,korean,40.75232,-73.78575,https://www.yelp.com/biz/matsarang-new-york?adjust_creative=7L58B9086saOW4zCCye5mg&utm_campaign=yelp_api_v3&utm_medium=api_v3_business_search&utm_source=7L58B9086saOW4zCCye5mg
Fairfield Inn & Suites New York Staten Island,1,Paesano's Pizzeria,0.781,4.2,$,1.0,722.5,"pizza,italian,seafood",40.612,-74.1326,https://www.yelp.com/biz/paesanos-pizzeria-staten-island?adjust_creative=7L58B9086saOW4zCCye5mg&utm_campaign=yelp_api_v3&utm_medium=api_v3_business_search&utm_source=7L58B9086saOW4zCCye5mg
Fairfield Inn & Suites New York Staten Island,2,DiLeo's Pizzeria,0.768,3.5,$,1.0,522.0,"pizza,italian",40.6106669495569,-74.1461451945122,https://www.yelp.com/biz/dileos-pizzeria-staten-island?adjust_creative=7L58B9086saOW4zCCye5mg&utm_campaign=yelp_api_v3&utm_medium=api_v3_business_search&utm_source=7L58B9086saOW4zCCye5mg
Fairfield Inn & Suites New York Staten Island,3,Jimmy Max,0.737,3.7,$$,2.0,782.5,"pizza,italian,gluten_free",40.61595,-74.13873,https://www.yelp.com/biz/jimmy-max-staten-island?adjust_creative=7L58B9086saOW4zCCye5mg&utm_campaign=yelp_api_v3&utm_medium=api_v3_business_search&utm_source=7L58B9086saOW4zCCye5mg
Fairfield Inn & Suites New York Staten Island,4,Beyar's Market,0.682,4.0,$$,2.0,377.4,delis,40.6120431,-74.1381128,https://www.yelp.com/biz/beyars-market-staten-island?adjust_creative=7L58B9086saOW4zCCye5mg&utm_campaign=yelp_api_v3&utm_medium=api_v3_business_search&utm_source=7L58B9086saOW4zCCye5mg
Fairfield Inn & Suites New York Staten Island,5,Fava Restaurant & Bar,0.637,4.7,,,917.3,"mediterranean,spanish,italian",40.61276970629436,-74.1305926678986,https://www.yelp.com/biz/fava-restaurant-and-bar-staten-island?adjust_creative=7L58B9086saOW4zCCye5mg&utm_campaign=yelp_api_v3&utm_medium=api_v3_business_search&utm_source=7L58B9086saOW4zCCye5mg
Four Points by Sheraton Midtown - Times Square,1,Aya Sushi,0.896,3.9,$$,2.0,92.4,japanese,40.75561,-73.99207,https://www.yelp.com/biz/aya-sushi-new-york?adjust_creative=7L58B9086saOW4zCCye5mg&utm_campaign=yelp_api_v3&utm_medium=api_v3_business_search&utm_source=7L58B9086saOW4zCCye5mg
Four Points by Sheraton Midtown - Times Square,2,Casa Di Isacco,0.894,3.9,$$,2.0,99.0,"italian,seafood,wine_bars",40.7568,-73.99342,https://www.yelp.com/biz/casa-di-isacco-new-york?adjust_creative=7L58B9086saOW4zCCye5mg&utm_campaign=yelp_api_v3&utm_medium=api_v3_business_search&utm_source=7L58B9086saOW4zCCye5mg
Four Points by Sheraton Midtown - Times Square,3,Mercato,0.884,3.8,$$$,3.0,112.3,"italian,cocktailbars,desserts",40.75626,-73.99364,https://www.yelp.com/biz/mercato-new-york?adjust_creative=7L58B9086saOW4zCCye5mg&utm_campaign=yelp_api_v3&utm_medium=api_v3_business_search&utm_source=7L58B9086saOW4zCCye5mg
Four Points by Sheraton Midtown - Times Square,4,Catzuneko Shokudo,0.811,5.0,,,134.8,"japanese,sushi",40.75627375223928,-73.99394420000002,https://www.yelp.com/biz/catzuneko-shokudo-new-york-3?adjust_creative=7L58B9086saOW4zCCye5mg&utm_campaign=yelp_api_v3&utm_medium=api_v3_business_search&utm_source=7L58B9086saOW4zCCye5mg
Four Points by Sheraton Midtown - Times Square,5,Buena Vista Restaurant & Bar,0.793,4.6,$$$,3.0,99.0,"bars,latin,seafood",40.75686,-73.99356,https://www.yelp.com/biz/buena-vista-restaurant-and-bar-new-york?adjust_creative=7L58B9086saOW4zCCye5mg&utm_campaign=yelp_api_v3&utm_medium=api_v3_business_search&utm_source=7L58B9086saOW4zCCye5mg
JW Marriott Essex House New York,1,Tuscany Steakhouse,0.929,4.5,$$$,3.0,126.3,"steak,italian,seafood",40.76546,-73.97724,https://www.yelp.com/biz/tuscany-steakhouse-new-york?adjust_creative=7L58B9086saOW4zCCye5mg&utm_campaign=yelp_api_v3&utm_medium=api_v3_business_search&utm_source=7L58B9086saOW4zCCye5mg
JW Marriott Essex House New York,2,Angelo's Coal Oven Pizzeria,0.888,4.0,$$,2.0,146.4,"pizza,italian",40.76492,-73.97794,https://www.yelp.com/biz/angelos-coal-oven-pizzeria-new-york?adjust_creative=7L58B9086saOW4zCCye5mg&utm_campaign=yelp_api_v3&utm_medium=api_v3_business_search&utm_source=7L58B9086saOW4zCCye5mg
JW Marriott Essex House New York,3,Trattoria Dell'Arte,0.877,4.0,$$$,3.0,188.5,italian,40.76544599,-73.98053136970677,https://www.yelp.com/biz/trattoria-dellarte-new-york?adjust_creative=7L58B9086saOW4zCCye5mg&utm_campaign=yelp_api_v3&utm_medium=api_v3_business_search&utm_source=7L58B9086saOW4zCCye5mg
JW Marriott Essex House New York,4,Topaz Thai Authentic,0.84,3.5,$$,2.0,197.8,"thai,noodles,soup",40.7644157409668,-73.9789047241211,https://www.yelp.com/biz/topaz-thai-authentic-new-york?adjust_creative=7L58B9086saOW4zCCye5mg&utm_campaign=yelp_api_v3&utm_medium=api_v3_business_search&utm_source=7L58B9086saOW4zCCye5mg
JW Marriott Essex House New York,5,Loi Estiatorio,0.801,4.7,$$$,3.0,97.6,"greek,mediterranean",40.765385,-73.978002,https://www.yelp.com/biz/loi-estiatorio-new-york?adjust_creative=7L58B9086saOW4zCCye5mg&utm_campaign=yelp_api_v3&utm_medium=api_v3_business_search&utm_source=7L58B9086saOW4zCCye5mg
Moxy Brooklyn Williamsburg,1,Motorino Pizza,0.905,3.8,$$,2.0,35.6,"pizza,italian,cocktailbars",40.7104799,-73.96351,https://www.yelp.com/biz/motorino-pizzeria-napoletana-brooklyn?adjust_creative=7L58B9086saOW4zCCye5mg&utm_campaign=yelp_api_v3&utm_medium=api_v3_business_search&utm_source=7L58B9086saOW4zCCye5mg
Moxy Brooklyn Williamsburg,2,Social House Cafe,0.898,4.4,$$,2.0,217.8,"coffee,cafes,italian",40.7102965207822,-73.966014,https://www.yelp.com/biz/social-house-cafe-brooklyn?adjust_creative=7L58B9086saOW4zCCye5mg&utm_campaign=yelp_api_v3&utm_medium=api_v3_business_search&utm_source=7L58B9086saOW4zCCye5mg
Moxy Brooklyn Williamsburg,3,Noods n’ Chill,0.866,4.0,$$,2.0,233.4,thai,40.71194,-73.96121,https://www.yelp.com/biz/noods-n-chill-brooklyn?adjust_creative=7L58B9086saOW4zCCye5mg&utm_campaign=yelp_api_v3&utm_medium=api_v3_business_search&utm_source=7L58B9086saOW4zCCye5mg
Moxy Brooklyn Williamsburg,4,OTB,0.79,4.3,$$,2.0,36.5,"newamerican,breakfast_brunch,cocktailbars",40.71045,-73.96345,https://www.yelp.com/biz/otb-brooklyn?adjust_creative=7L58B9086saOW4zCCye5mg&utm_campaign=yelp_api_v3&utm_medium=api_v3_business_search&utm_source=7L58B9086saOW4zCCye5mg
Moxy Brooklyn Williamsburg,5,Francie,0.78,4.4,$$$$,4.0,95.7,"italian,french,cocktailbars",40.71002578663716,-73.96405744314846,https://www.yelp.com/biz/francie-brooklyn?adjust_creative=7L58B9086saOW4zCCye5mg&utm_campaign=yelp_api_v3&utm_medium=api_v3_business_search&utm_source=7L58B9086saOW4zCCye5mg
Moxy NYC Chelsea,1,Hanamizuki Cafe,0.906,4.2,$$,2.0,134.1,"cafes,coffee,japanese",40.74756805565555,-73.99161579999999,https://www.yelp.com/biz/hanamizuki-cafe-new-york-2?adjust_creative=7L58B9086saOW4zCCye5mg&utm_campaign=yelp_api_v3&utm_medium=api_v3_business_search&utm_source=7L58B9086saOW4zCCye5mg
Moxy NYC Chelsea,2,L'Amico NYC,0.883,3.7,$$$,3.0,88.7,"italian,bars,pizza",40.747083,-73.990154,https://www.yelp.com/biz/l-amico-nyc-new-york?adjust_creative=7L58B9086saOW4zCCye5mg&utm_campaign=yelp_api_v3&utm_medium=api_v3_business_search&utm_source=7L58B9086saOW4zCCye5mg
Moxy NYC Chelsea,3,Mala Panda,0.798,4.6,$$,2.0,80.5,"chinese,seafood,hotpot",40.74582305157627,-73.99136341799563,https://www.yelp.com/biz/mala-panda-new-york-2?adjust_creative=7L58B9086saOW4zCCye5mg&utm_campaign=yelp_api_v3&utm_medium=api_v3_business_search&utm_source=7L58B9086saOW4zCCye5mg
Moxy NYC Chelsea,4,Loopy's Eatery,0.798,4.9,$$,2.0,158.7,"korean,asianfusion,cheesesteaks",40.747399,-73.992377,https://www.yelp.com/biz/loopys-eatery-new-york-3?adjust_creative=7L58B9086saOW4zCCye5mg&utm_campaign=yelp_api_v3&utm_medium=api_v3_business_search&utm_source=7L58B9086saOW4zCCye5mg
Moxy NYC Chelsea,5,Antojito Mexicano,0.79,4.4,$,1.0,60.0,"mexican,foodstands",40.7460380678347,-73.9905191880082,https://www.yelp.com/biz/antojito-mexicano-new-york?adjust_creative=7L58B9086saOW4zCCye5mg&utm_campaign=yelp_api_v3&utm_medium=api_v3_business_search&utm_source=7L58B9086saOW4zCCye5mg
Moxy NYC East Village,1,Tim Ho Wan - East Village,0.727,3.5,$$,2.0,60.1,"dimsum,cantonese",40.731338,-73.990145,https://www.yelp.com/biz/tim-ho-wan-east-village-new-york?adjust_creative=7L58B9086saOW4zCCye5mg&utm_campaign=yelp_api_v3&utm_medium=api_v3_business_search&utm_source=7L58B9086saOW4zCCye5mg
Moxy NYC East Village,2,Penny,0.638,4.4,,,67.8,"venues,seafood,wine_bars",40.730806,-73.989727,https://www.yelp.com/biz/penny-new-york?adjust_creative=7L58B9086saOW4zCCye5mg&utm_campaign=yelp_api_v3&utm_medium=api_v3_business_search&utm_source=7L58B9086saOW4zCCye5mg
Moxy NYC East Village,3,Healthy Greens Gourmet Deli,0.634,4.3,,,57.7,"grocery,delis,juicebars",40.7309286639192,-73.9891720831899,https://www.yelp.com/biz/healthy-greens-gourmet-deli-new-york?adjust_creative=7L58B9086saOW4zCCye5mg&utm_campaign=yelp_api_v3&utm_medium=api_v3_business_search&utm_source=7L58B9086saOW4zCCye5mg
Moxy NYC East Village,4,Cafe D’Avignon,0.623,4.0,,,23.1,"coffee,popupshops,sandwiches",40.73160833539077,-73.98950553247762,https://www.yelp.com/biz/cafe-d-avignon-manhattan?adjust_creative=7L58B9086saOW4zCCye5mg&utm_campaign=yelp_api_v3&utm_medium=api_v3_business_search&utm_source=7L58B9086saOW4zCCye5mg
Moxy NYC East Village,5,Cathédrale Restaurant,0.605,3.7,$$$$,4.0,14.2,"french,mediterranean",40.731516,-73.989501,https://www.yelp.com/biz/cath%C3%A9drale-restaurant-new-york-city?adjust_creative=7L58B9086saOW4zCCye5mg&utm_campaign=yelp_api_v3&utm_medium=api_v3_business_search&utm_source=7L58B9086saOW4zCCye5mg
Moxy NYC Times Square,1,Dainobu Gourmet Deli,0.819,5.0,,,108.5,"delis,sushi,japanese",40.75184,-73.98839,https://www.yelp.com/biz/dainobu-gourmet-deli-new-york?adjust_creative=7L58B9086saOW4zCCye5mg&utm_campaign=yelp_api_v3&utm_medium=api_v3_business_search&utm_source=7L58B9086saOW4zCCye5mg
Moxy NYC Times Square,2,Café D'Avignon - The Moxy Times Square,0.8,4.4,$$,2.0,28.0,"bakeries,breakfast_brunch,sandwiches",40.752344,-73.989233,https://www.yelp.com/biz/caf%C3%A9-d-avignon-the-moxy-times-square-new-york-5?adjust_creative=7L58B9086saOW4zCCye5mg&utm_campaign=yelp_api_v3&utm_medium=api_v3_business_search&utm_source=7L58B9086saOW4zCCye5mg
Moxy NYC Times Square,3,7th Street Burger Times Square,0.798,4.3,$$,2.0,9.2,"burgers,beverage_stores",40.75243161339776,-73.98932513685675,https://www.yelp.com/biz/7th-street-burger-times-square-new-york?adjust_creative=7L58B9086saOW4zCCye5mg&utm_campaign=yelp_api_v3&utm_medium=api_v3_business_search&utm_source=7L58B9086saOW4zCCye5mg
Moxy NYC Times Square,4,Zen Ramen & Sushi,0.792,4.5,$$,2.0,80.0,"sushi,ramen,salad",40.75177475474212,-73.98897630211589,https://www.yelp.com/biz/zen-ramen-and-sushi-new-york?adjust_creative=7L58B9086saOW4zCCye5mg&utm_campaign=yelp_api_v3&utm_medium=api_v3_business_search&utm_source=7L58B9086saOW4zCCye5mg
Moxy NYC Times Square,5,Beyond Sushi,0.791,4.5,$$,2.0,80.2,"vegan,sushi,desserts",40.752480219194666,-73.98848260324495,https://www.yelp.com/biz/beyond-sushi-new-york-5?adjust_creative=7L58B9086saOW4zCCye5mg&utm_campaign=yelp_api_v3&utm_medium=api_v3_business_search&utm_source=7L58B9086saOW4zCCye5mg
New York LaGuardia Airport Marriott,1,Xun Su Asian Cuisine,0.729,2.3,$$,2.0,308.7,"thai,asianfusion,seafood",40.77102855406766,-73.86518850092789,https://www.yelp.com/biz/xun-su-asian-cuisine-east-elmhurst?adjust_creative=7L58B9086saOW4zCCye5mg&utm_campaign=yelp_api_v3&utm_medium=api_v3_business_search&utm_source=7L58B9086saOW4zCCye5mg
New York LaGuardia Airport Marriott,2,Cibo Bistro and Wine Bar,0.726,2.3,$$,2.0,319.8,italian,40.771653,-73.866204,https://www.yelp.com/biz/cibo-bistro-and-wine-bar-flushing?adjust_creative=7L58B9086saOW4zCCye5mg&utm_campaign=yelp_api_v3&utm_medium=api_v3_business_search&utm_source=7L58B9086saOW4zCCye5mg
New York LaGuardia Airport Marriott,3,LaGuardia Cafe,0.684,4.3,$$,2.0,472.1,"spanish,breakfast_brunch,dominican",40.76829500488018,-73.87323255472334,https://www.yelp.com/biz/laguardia-cafe-east-elmhurst?adjust_creative=7L58B9086saOW4zCCye5mg&utm_campaign=yelp_api_v3&utm_medium=api_v3_business_search&utm_source=7L58B9086saOW4zCCye5mg
New York LaGuardia Airport Marriott,4,Pavilion Grille,0.645,2.9,$$,2.0,208.9,tradamerican,40.767201,-73.867045,https://www.yelp.com/biz/pavilion-grille-new-york?adjust_creative=7L58B9086saOW4zCCye5mg&utm_campaign=yelp_api_v3&utm_medium=api_v3_business_search&utm_source=7L58B9086saOW4zCCye5mg
New York LaGuardia Airport Marriott,5,Ditmars Bar & Grill,0.626,4.0,,,14.0,"restaurants,bars",40.76895531550328,-73.86755891628167,https://www.yelp.com/biz/ditmars-bar-and-grill-queens?adjust_creative=7L58B9086saOW4zCCye5mg&utm_campaign=yelp_api_v3&utm_medium=api_v3_business_search&utm_source=7L58B9086saOW4zCCye5mg
New York Marriott Downtown,1,Eataly NYC Downtown,0.843,3.7,$$,2.0,242.6,"grocery,italian,cafes",40.710206,-74.011823,https://www.yelp.com/biz/eataly-nyc-downtown-new-york-2?adjust_creative=7L58B9086saOW4zCCye5mg&utm_campaign=yelp_api_v3&utm_medium=api_v3_business_search&utm_source=7L58B9086saOW4zCCye5mg
New York Marriott Downtown,2,La Pizza & La Pasta at Eataly NYC Downtown,0.829,3.5,$$,2.0,242.6,"pizza,pastashops,italian",40.710206,-74.011823,https://www.yelp.com/biz/la-pizza-and-la-pasta-at-eataly-nyc-downtown-new-york?adjust_creative=7L58B9086saOW4zCCye5mg&utm_campaign=yelp_api_v3&utm_medium=api_v3_business_search&utm_source=7L58B9086saOW4zCCye5mg
New York Marriott Downtown,3,Osteria della Pace,0.801,3.1,$$$,3.0,242.6,italian,40.7096522,-74.0112896,https://www.yelp.com/biz/osteria-della-pace-new-york?adjust_creative=7L58B9086saOW4zCCye5mg&utm_campaign=yelp_api_v3&utm_medium=api_v3_business_search&utm_source=7L58B9086saOW4zCCye5mg
New York Marriott Downtown,4,Regular NYC,0.788,4.8,$$,2.0,170.4,"breakfast_brunch,coffee,bagels",40.70801,-74.013984,https://www.yelp.com/biz/regular-nyc-new-york-5?adjust_creative=7L58B9086saOW4zCCye5mg&utm_campaign=yelp_api_v3&utm_medium=api_v3_business_search&utm_source=7L58B9086saOW4zCCye5mg
New York Marriott Downtown,5,Schilling Restaurant & Bar,0.766,4.2,$$,2.0,97.1,"austrian,bars,newamerican",40.70876746027962,-74.01401660338927,https://www.yelp.com/biz/schilling-restaurant-and-bar-new-york?adjust_creative=7L58B9086saOW4zCCye5mg&utm_campaign=yelp_api_v3&utm_medium=api_v3_business_search&utm_source=7L58B9086saOW4zCCye5mg
New York Marriott Marquis,1,Patzeria Perfect Pizza,0.899,4.0,$,1.0,106.7,"pizza,italian,pastashops",40.75949451155184,-73.98673451962638,https://www.yelp.com/biz/patzeria-perfect-pizza-new-york?adjust_creative=7L58B9086saOW4zCCye5mg&utm_campaign=yelp_api_v3&utm_medium=api_v3_business_search&utm_source=7L58B9086saOW4zCCye5mg
New York Marriott Marquis,2,Carmine's - Time Square,0.892,4.0,$$$,3.0,131.5,"italian,venues,seafood",40.75747,-73.9866,https://www.yelp.com/biz/carmines-time-square-new-york-2?adjust_creative=7L58B9086saOW4zCCye5mg&utm_campaign=yelp_api_v3&utm_medium=api_v3_business_search&utm_source=7L58B9086saOW4zCCye5mg
New York Marriott Marquis,3,Bond 45,0.89,3.7,$$$,3.0,64.1,"italian,pizza,newamerican",40.7591637016814,-73.9859788257256,https://www.yelp.com/biz/bond-45-new-york-2?adjust_creative=7L58B9086saOW4zCCye5mg&utm_campaign=yelp_api_v3&utm_medium=api_v3_business_search&utm_source=7L58B9086saOW4zCCye5mg
New York Marriott Marquis,4,RA Sushi,0.867,3.7,$$,2.0,147.4,"japanese,sushi",40.757596,-73.987384,https://www.yelp.com/biz/ra-sushi-new-york?adjust_creative=7L58B9086saOW4zCCye5mg&utm_campaign=yelp_api_v3&utm_medium=api_v3_business_search&utm_source=7L58B9086saOW4zCCye5mg
New York Marriott Marquis,5,Sardi's,0.853,3.5,$$$,3.0,148.5,"tradamerican,italian,steak",40.75789,-73.98755,https://www.yelp.com/biz/sardis-new-york?adjust_creative=7L58B9086saOW4zCCye5mg&utm_campaign=yelp_api_v3&utm_medium=api_v3_business_search&utm_source=7L58B9086saOW4zCCye5mg
New York Marriott at the Brooklyn Bridge,1,Teriyaki One,0.908,4.3,$$,2.0,151.9,japanese,40.69207434113311,-73.9875789731741,https://www.yelp.com/biz/teriyaki-one-brooklyn?adjust_creative=7L58B9086saOW4zCCye5mg&utm_campaign=yelp_api_v3&utm_medium=api_v3_business_search&utm_source=7L58B9086saOW4zCCye5mg
New York Marriott at the Brooklyn Bridge,2,Dave's Hot Chicken,0.791,4.4,$$,2.0,56.5,"halal,chickenshop",40.69289117139648,-73.98847946443622,https://www.yelp.com/biz/daves-hot-chicken-brooklyn-3?adjust_creative=7L58B9086saOW4zCCye5mg&utm_campaign=yelp_api_v3&utm_medium=api_v3_business_search&utm_source=7L58B9086saOW4zCCye5mg
New York Marriott at the Brooklyn Bridge,3,Downtown Natural Market,0.752,4.4,$$,2.0,200.9,"juicebars,vitaminssupplements,vegetarian",40.691711085615225,-73.98721775505574,https://www.yelp.com/biz/downtown-natural-market-brooklyn?adjust_creative=7L58B9086saOW4zCCye5mg&utm_campaign=yelp_api_v3&utm_medium=api_v3_business_search&utm_source=7L58B9086saOW4zCCye5mg
New York Marriott at the Brooklyn Bridge,4,Xi'an Famous Foods,0.748,4.3,$$,2.0,190.2,"chinese,noodles,burgers",40.69212,-73.9867,https://www.yelp.com/biz/xian-famous-foods-brooklyn-10?adjust_creative=7L58B9086saOW4zCCye5mg&utm_campaign=yelp_api_v3&utm_medium=api_v3_business_search&utm_source=7L58B9086saOW4zCCye5mg
New York Marriott at the Brooklyn Bridge,5,Shake Shack Downtown Brooklyn,0.727,3.8,$$,2.0,138.0,"burgers,icecream,hotdogs",40.69213,-73.98847,https://www.yelp.com/biz/shake-shack-downtown-brooklyn-brooklyn?adjust_creative=7L58B9086saOW4zCCye5mg&utm_campaign=yelp_api_v3&utm_medium=api_v3_business_search&utm_source=7L58B9086saOW4zCCye5mg
Renaissance New York Midtown Hotel,1,Sushi 35 West,0.811,4.5,,,14.8,"japanese,sushi",40.75185576273942,-73.99103170429917,https://www.yelp.com/biz/sushi-35-west-new-york?adjust_creative=7L58B9086saOW4zCCye5mg&utm_campaign=yelp_api_v3&utm_medium=api_v3_business_search&utm_source=7L58B9086saOW4zCCye5mg
Renaissance New York Midtown Hotel,2,Alessa Cucina & Bar,0.799,4.6,,,79.7,"italian,cocktailbars,venues",40.752414070599656,-73.99133599999999,https://www.yelp.com/biz/alessa-new-york?adjust_creative=7L58B9086saOW4zCCye5mg&utm_campaign=yelp_api_v3&utm_medium=api_v3_business_search&utm_source=7L58B9086saOW4zCCye5mg
Renaissance New York Midtown Hotel,3,Stick To My Pot Potsticker,0.798,4.4,$,1.0,34.8,chinese,40.75202,-73.99121,https://www.yelp.com/biz/stick-to-my-pot-potsticker-new-york?adjust_creative=7L58B9086saOW4zCCye5mg&utm_campaign=yelp_api_v3&utm_medium=api_v3_business_search&utm_source=7L58B9086saOW4zCCye5mg
Renaissance New York Midtown Hotel,4,Best Bagel & Coffee,0.797,4.5,$$,2.0,60.3,"bagels,coffee,breakfast_brunch",40.7522683,-73.9910861,https://www.yelp.com/biz/best-bagel-and-coffee-new-york?adjust_creative=7L58B9086saOW4zCCye5mg&utm_campaign=yelp_api_v3&utm_medium=api_v3_business_search&utm_source=7L58B9086saOW4zCCye5mg
Renaissance New York Midtown Hotel,5,Gosuke,0.779,4.3,,,73.2,"japanese,sushi",40.7523,-73.99127,https://www.yelp.com/biz/gosuke-new-york-2?adjust_creative=7L58B9086saOW4zCCye5mg&utm_campaign=yelp_api_v3&utm_medium=api_v3_business_search&utm_source=7L58B9086saOW4zCCye5mg
Residence Inn New York Manhattan/Central Park,1,SUGARFISH | Midtown West,0.919,4.3,$$$,3.0,111.4,"japanese,sushi",40.764961,-73.981612,https://www.yelp.com/biz/sugarfish-midtown-west-new-york?adjust_creative=7L58B9086saOW4zCCye5mg&utm_campaign=yelp_api_v3&utm_medium=api_v3_business_search&utm_source=7L58B9086saOW4zCCye5mg
Residence Inn New York Manhattan/Central Park,2,Yakitori Totto,0.898,4.0,$$,2.0,110.5,japanese,40.765375,-73.983114,https://www.yelp.com/biz/yakitori-totto-new-york?adjust_creative=7L58B9086saOW4zCCye5mg&utm_campaign=yelp_api_v3&utm_medium=api_v3_business_search&utm_source=7L58B9086saOW4zCCye5mg
Residence Inn New York Manhattan/Central Park,3,Nocello,0.896,4.0,$$$,3.0,117.3,"italian,venues,wine_bars",40.76535857831784,-73.98338622822433,https://www.yelp.com/biz/nocello-new-york?adjust_creative=7L58B9086saOW4zCCye5mg&utm_campaign=yelp_api_v3&utm_medium=api_v3_business_search&utm_source=7L58B9086saOW4zCCye5mg
Residence Inn New York Manhattan/Central Park,4,Patsy's Italian Restaurant,0.894,4.0,$$$,3.0,125.4,"italian,southern,wine_bars",40.76553,-73.98274,https://www.yelp.com/biz/patsys-italian-restaurant-new-york?adjust_creative=7L58B9086saOW4zCCye5mg&utm_campaign=yelp_api_v3&utm_medium=api_v3_business_search&utm_source=7L58B9086saOW4zCCye5mg
Residence Inn New York Manhattan/Central Park,5,Donburiya,0.892,3.9,$$,2.0,108.8,"japanese,seafood,desserts",40.76528,-73.98326,https://www.yelp.com/biz/donburiya-new-york-2?adjust_creative=7L58B9086saOW4zCCye5mg&utm_campaign=yelp_api_v3&utm_medium=api_v3_business_search&utm_source=7L58B9086saOW4zCCye5mg
Residence Inn New York Manhattan/Times Square,1,Pisillo Italian Panini,0.963,4.8,$$,2.0,78.8,"delis,italian,sandwiches",40.752521,-73.9866864,https://www.yelp.com/biz/pisillo-italian-panini-new-york-6?adjust_creative=7L58B9086saOW4zCCye5mg&utm_campaign=yelp_api_v3&utm_medium=api_v3_business_search&utm_source=7L58B9086saOW4zCCye5mg
Residence Inn New York Manhattan/Times Square,2,Napoli Pizza,0.912,3.9,$,1.0,37.5,"pizza,pastashops,italian",40.75274377588595,-73.9854148,https://www.yelp.com/biz/napoli-pizza-new-york-5?adjust_creative=7L58B9086saOW4zCCye5mg&utm_campaign=yelp_api_v3&utm_medium=api_v3_business_search&utm_source=7L58B9086saOW4zCCye5mg
Residence Inn New York Manhattan/Times Square,3,Kajiken,0.787,4.5,$$,2.0,96.3,"ramen,noodles",40.752060143128205,-73.98636590329981,https://www.yelp.com/biz/kajiken-new-york?adjust_creative=7L58B9086saOW4zCCye5mg&utm_campaign=yelp_api_v3&utm_medium=api_v3_business_search&utm_source=7L58B9086saOW4zCCye5mg
Residence Inn New York Manhattan/Times Square,4,Class On 38th,0.785,4.5,,,102.3,"bars,japanese,seafood",40.75216148352418,-73.98501159999999,https://www.yelp.com/biz/class-on-38th-new-york?adjust_creative=7L58B9086saOW4zCCye5mg&utm_campaign=yelp_api_v3&utm_medium=api_v3_business_search&utm_source=7L58B9086saOW4zCCye5mg
Residence Inn New York Manhattan/Times Square,5,Peppercorn Station,0.783,4.3,$$,2.0,61.4,szechuan,40.75266,-73.985145,https://www.yelp.com/biz/peppercorn-station-new-york?adjust_creative=7L58B9086saOW4zCCye5mg&utm_campaign=yelp_api_v3&utm_medium=api_v3_business_search&utm_source=7L58B9086saOW4zCCye5mg
Residence Inn New York The Bronx at Metro Center Atrium,1,Kai Sushi Asian Fusion,0.798,3.9,$$,2.0,509.6,"asianfusion,chinese,japanese",40.84362,-73.84565,https://www.yelp.com/biz/kai-sushi-asian-fusion-bronx?adjust_creative=7L58B9086saOW4zCCye5mg&utm_campaign=yelp_api_v3&utm_medium=api_v3_business_search&utm_source=7L58B9086saOW4zCCye5mg
Residence Inn New York The Bronx at Metro Center Atrium,2,Tana Thai,0.775,3.2,$$,2.0,384.8,thai,40.8514292,-73.84381380091752,https://www.yelp.com/biz/tana-thai-bronx?adjust_creative=7L58B9086saOW4zCCye5mg&utm_campaign=yelp_api_v3&utm_medium=api_v3_business_search&utm_source=7L58B9086saOW4zCCye5mg
Residence Inn New York The Bronx at Metro Center Atrium,3,Chicken Vs Lamb,0.767,4.3,$,1.0,116.3,"mideastern,halal,foodstands",40.8489762040892,-73.845446217529,https://www.yelp.com/biz/chicken-vs-lamb-bronx-3?adjust_creative=7L58B9086saOW4zCCye5mg&utm_campaign=yelp_api_v3&utm_medium=api_v3_business_search&utm_source=7L58B9086saOW4zCCye5mg
Residence Inn New York The Bronx at Metro Center Atrium,4,Patricia's of Morris Park,0.76,3.9,$$$,3.0,725.0,"pizza,italian,bars",40.84914003884008,-73.8533007,https://www.yelp.com/biz/patricias-of-morris-park-bronx?adjust_creative=7L58B9086saOW4zCCye5mg&utm_campaign=yelp_api_v3&utm_medium=api_v3_business_search&utm_source=7L58B9086saOW4zCCye5mg
Residence Inn New York The Bronx at Metro Center Atrium,5,Bagels and Cream,0.736,3.8,$,1.0,101.9,"bagels,breakfast_brunch,coffee",40.84719,-73.84437,https://www.yelp.com/biz/bagels-and-cream-bronx?adjust_creative=7L58B9086saOW4zCCye5mg&utm_campaign=yelp_api_v3&utm_medium=api_v3_business_search&utm_source=7L58B9086saOW4zCCye5mg
Sheraton Brooklyn New York Hotel,1,Raising Cane's Chicken Fingers,0.688,3.3,$$,2.0,149.9,"hotdogs,chickenshop",40.69157189450252,-73.98710301031764,https://www.yelp.com/biz/raising-canes-chicken-fingers-brooklyn-6?adjust_creative=7L58B9086saOW4zCCye5mg&utm_campaign=yelp_api_v3&utm_medium=api_v3_business_search&utm_source=7L58B9086saOW4zCCye5mg
Sheraton Tribeca New York Hotel,1,Tataki Japanese Restaurant,0.872,3.5,$$,2.0,80.1,japanese,40.72067,-74.00486,https://www.yelp.com/biz/tataki-japanese-restaurant-new-york?adjust_creative=7L58B9086saOW4zCCye5mg&utm_campaign=yelp_api_v3&utm_medium=api_v3_business_search&utm_source=7L58B9086saOW4zCCye5mg
Sheraton Tribeca New York Hotel,2,Il Mulino Prime - Soho,0.85,3.5,$$$,3.0,159.7,"steak,italian",40.72219,-74.00376,https://www.yelp.com/biz/il-mulino-prime-soho-new-york?adjust_creative=7L58B9086saOW4zCCye5mg&utm_campaign=yelp_api_v3&utm_medium=api_v3_business_search&utm_source=7L58B9086saOW4zCCye5mg
Sheraton Tribeca New York Hotel,3,Panang Panang Thai Curry,0.826,5.0,,,83.2,"fooddeliveryservices,thai",40.72022426060824,-74.00463335005966,https://www.yelp.com/biz/panang-panang-thai-curry-new-york?adjust_creative=7L58B9086saOW4zCCye5mg&utm_campaign=yelp_api_v3&utm_medium=api_v3_business_search&utm_source=7L58B9086saOW4zCCye5mg
Sheraton Tribeca New York Hotel,4,Lucia Alimentari,0.794,4.6,,,95.9,"grocery,sandwiches,italian",40.72148028406957,-74.0043592982251,https://www.yelp.com/biz/lucia-alimentari-new-york?adjust_creative=7L58B9086saOW4zCCye5mg&utm_campaign=yelp_api_v3&utm_medium=api_v3_business_search&utm_source=7L58B9086saOW4zCCye5mg
Sheraton Tribeca New York Hotel,5,Pepolino Restaurant,0.776,4.3,$$$,3.0,85.6,tuscan,40.720756,-74.004885,https://www.yelp.com/biz/pepolino-restaurant-new-york?adjust_creative=7L58B9086saOW4zCCye5mg&utm_campaign=yelp_api_v3&utm_medium=api_v3_business_search&utm_source=7L58B9086saOW4zCCye5mg
SpringHill Suites New York Midtown Manhattan/Fifth Avenue,1,Togyushi,0.84,5.0,,,32.9,"japanese,steak,cocktailbars",40.751355,-73.984991,https://www.yelp.com/biz/togyushi-new-york?adjust_creative=7L58B9086saOW4zCCye5mg&utm_campaign=yelp_api_v3&utm_medium=api_v3_business_search&utm_source=7L58B9086saOW4zCCye5mg
SpringHill Suites New York Midtown Manhattan/Fifth Avenue,2,Kiai,0.817,5.0,,,114.5,japanese,40.752082,-73.984027,https://www.yelp.com/biz/kiai-new-york?adjust_creative=7L58B9086saOW4zCCye5mg&utm_campaign=yelp_api_v3&utm_medium=api_v3_business_search&utm_source=7L58B9086saOW4zCCye5mg
SpringHill Suites New York Midtown Manhattan/Fifth Avenue,3,Umami Bistro,0.817,5.0,,,114.5,"japanese,catering,personalchefs",40.75218,-73.98394,https://www.yelp.com/biz/umami-bistro-new-york?adjust_creative=7L58B9086saOW4zCCye5mg&utm_campaign=yelp_api_v3&utm_medium=api_v3_business_search&utm_source=7L58B9086saOW4zCCye5mg
SpringHill Suites New York Midtown Manhattan/Fifth Avenue,4,Watami Japanese,0.806,4.6,,,53.8,"sushi,japanese",40.7510009,-73.9852485,https://www.yelp.com/biz/watami-japanese-new-york?adjust_creative=7L58B9086saOW4zCCye5mg&utm_campaign=yelp_api_v3&utm_medium=api_v3_business_search&utm_source=7L58B9086saOW4zCCye5mg
SpringHill Suites New York Midtown Manhattan/Fifth Avenue,5,Tonchin,0.778,4.4,$$,2.0,104.9,"ramen,cocktailbars,chicken_wings",40.7502727,-73.9844951,https://www.yelp.com/biz/tonchin-new-york-6?adjust_creative=7L58B9086saOW4zCCye5mg&utm_campaign=yelp_api_v3&utm_medium=api_v3_business_search&utm_source=7L58B9086saOW4zCCye5mg
SpringHill Suites New York Queens,1,Jhal NYC,0.746,5.0,$,1.0,407.8,"streetvendors,bangladeshi",40.75036,-73.94478,https://www.yelp.com/biz/jhal-nyc-queens-village?adjust_creative=7L58B9086saOW4zCCye5mg&utm_campaign=yelp_api_v3&utm_medium=api_v3_business_search&utm_source=7L58B9086saOW4zCCye5mg
SpringHill Suites New York Queens,2,Brockenzo Neapolitan Pizza,0.739,4.9,$$,2.0,407.8,"foodtrucks,pizza",40.7503547668457,-73.9447784423828,https://www.yelp.com/biz/brockenzo-neapolitan-pizza-long-island-4?adjust_creative=7L58B9086saOW4zCCye5mg&utm_campaign=yelp_api_v3&utm_medium=api_v3_business_search&utm_source=7L58B9086saOW4zCCye5mg
SpringHill Suites New York Queens,3,Thai Bird,0.723,5.0,,,519.0,"thai,chicken_wings",40.7395853,-73.9469816,https://www.yelp.com/biz/thai-bird-new-york?adjust_creative=7L58B9086saOW4zCCye5mg&utm_campaign=yelp_api_v3&utm_medium=api_v3_business_search&utm_source=7L58B9086saOW4zCCye5mg
SpringHill Suites New York Queens,4,Omakase OSUKAA LIC,0.715,4.7,,,454.4,"japanese,sushi",40.7423837,-73.93608569999999,https://www.yelp.com/biz/omakase-osukaa-long-island-city-4?adjust_creative=7L58B9086saOW4zCCye5mg&utm_campaign=yelp_api_v3&utm_medium=api_v3_business_search&utm_source=7L58B9086saOW4zCCye5mg
SpringHill Suites New York Queens,5,Mando Halal Food,0.683,4.7,$,1.0,621.8,"halal,foodstands",40.7446615,-73.9357911,https://www.yelp.com/biz/mando-halal-food-long-island-city?adjust_creative=7L58B9086saOW4zCCye5mg&utm_campaign=yelp_api_v3&utm_medium=api_v3_business_search&utm_source=7L58B9086saOW4zCCye5mg
The New York EDITION,1,Rafiqi's,0.817,5.0,$,1.0,114.9,foodstands,40.7405575364828,-73.9862378686666,https://www.yelp.com/biz/rafiqis-new-york-11?adjust_creative=7L58B9086saOW4zCCye5mg&utm_campaign=yelp_api_v3&utm_medium=api_v3_business_search&utm_source=7L58B9086saOW4zCCye5mg
The New York EDITION,2,Il Gusto,0.814,5.0,,,123.9,"fooddeliveryservices,italian,pizza",40.740269,-73.987079,https://www.yelp.com/biz/il-gusto-new-york-3?adjust_creative=7L58B9086saOW4zCCye5mg&utm_campaign=yelp_api_v3&utm_medium=api_v3_business_search&utm_source=7L58B9086saOW4zCCye5mg
The New York EDITION,3,Summer Salt,0.781,4.4,$$,2.0,94.4,"tacos,newmexican",40.740466,-73.987761,https://www.yelp.com/biz/summer-salt-new-york-3?adjust_creative=7L58B9086saOW4zCCye5mg&utm_campaign=yelp_api_v3&utm_medium=api_v3_business_search&utm_source=7L58B9086saOW4zCCye5mg
The New York EDITION,4,The Clocktower,0.777,4.0,$$$,3.0,8.5,british,40.74133,-73.98747,https://www.yelp.com/biz/the-clocktower-new-york?adjust_creative=7L58B9086saOW4zCCye5mg&utm_campaign=yelp_api_v3&utm_medium=api_v3_business_search&utm_source=7L58B9086saOW4zCCye5mg
The New York EDITION,5,Shake Shack Madison Square Park,0.761,4.0,$$,2.0,62.9,"hotdogs,burgers,icecream",40.7409,-73.98796,https://www.yelp.com/biz/shake-shack-madison-square-park-new-york-3?adjust_creative=7L58B9086saOW4zCCye5mg&utm_campaign=yelp_api_v3&utm_medium=api_v3_business_search&utm_source=7L58B9086saOW4zCCye5mg
"The Ritz-Carlton New York, NoMad",1,KazuNori | NoMad,0.941,4.5,$$,2.0,81.2,"sushi,japanese",40.74519,-73.98824,https://www.yelp.com/biz/kazunori-nomad-new-york?adjust_creative=7L58B9086saOW4zCCye5mg&utm_campaign=yelp_api_v3&utm_medium=api_v3_business_search&utm_source=7L58B9086saOW4zCCye5mg
"The Ritz-Carlton New York, NoMad",2,Andiamo Pizza,0.939,4.6,$,1.0,114.6,"pizza,italian,catering",40.746144,-73.990189,https://www.yelp.com/biz/andiamo-pizza-new-york-2?adjust_creative=7L58B9086saOW4zCCye5mg&utm_campaign=yelp_api_v3&utm_medium=api_v3_business_search&utm_source=7L58B9086saOW4zCCye5mg
"The Ritz-Carlton New York, NoMad",3,Ulivo,0.892,4.0,$$,2.0,131.4,"italian,cocktailbars",40.7447371960713,-73.9880339428782,https://www.yelp.com/biz/ulivo-new-york-2?adjust_creative=7L58B9086saOW4zCCye5mg&utm_campaign=yelp_api_v3&utm_medium=api_v3_business_search&utm_source=7L58B9086saOW4zCCye5mg
"The Ritz-Carlton New York, NoMad",4,Cecconi’s,0.864,3.4,$$$,3.0,81.1,"italian,breakfast_brunch,wine_bars",40.74501246219244,-73.98859646727088,https://www.yelp.com/biz/cecconi-s-new-york-3?adjust_creative=7L58B9086saOW4zCCye5mg&utm_campaign=yelp_api_v3&utm_medium=api_v3_business_search&utm_source=7L58B9086saOW4zCCye5mg
"The Ritz-Carlton New York, NoMad",5,Eat Real Halal,0.822,4.8,$,1.0,47.3,"streetvendors,halal,foodstands",40.7452961,-73.9887403,https://www.yelp.com/biz/eat-real-halal-new-york?adjust_creative=7L58B9086saOW4zCCye5mg&utm_campaign=yelp_api_v3&utm_medium=api_v3_business_search&utm_source=7L58B9086saOW4zCCye5mg
TownePlace Suites by Marriott New York Brooklyn,1,Kiku Asian Bistro,0.833,3.8,$$,2.0,311.5,"sushi,japanese,asianfusion",40.67751528847935,-73.97959202674274,https://www.yelp.com/biz/kiku-asian-bistro-brooklyn?adjust_creative=7L58B9086saOW4zCCye5mg&utm_campaign=yelp_api_v3&utm_medium=api_v3_business_search&utm_source=7L58B9086saOW4zCCye5mg
TownePlace Suites by Marriott New York Brooklyn,2,Pizzatown,0.823,3.7,$,1.0,324.1,"pizza,italian,sandwiches",40.680043,-73.977872,https://www.yelp.com/biz/pizzatown-brooklyn-3?adjust_creative=7L58B9086saOW4zCCye5mg&utm_campaign=yelp_api_v3&utm_medium=api_v3_business_search&utm_source=7L58B9086saOW4zCCye5mg
TownePlace Suites by Marriott New York Brooklyn,3,TongDee Thai,0.77,5.0,,,299.9,thai,40.677421,-73.980045,https://www.yelp.com/biz/tongdee-thai-brooklyn-2?adjust_creative=7L58B9086saOW4zCCye5mg&utm_campaign=yelp_api_v3&utm_medium=api_v3_business_search&utm_source=7L58B9086saOW4zCCye5mg
TownePlace Suites by Marriott New York Brooklyn,4,Morelos Authentic Mexican Cuisine,0.736,4.6,$,1.0,326.3,"mexican,foodtrucks",40.67185,-73.97898,https://www.yelp.com/biz/morelos-authentic-mexican-cuisine-park-slope?adjust_creative=7L58B9086saOW4zCCye5mg&utm_campaign=yelp_api_v3&utm_medium=api_v3_business_search&utm_source=7L58B9086saOW4zCCye5mg
TownePlace Suites by Marriott New York Brooklyn,5,Medusa The Greek,0.731,4.4,$$,2.0,285.7,"greek,mediterranean",40.67857,-73.97885,https://www.yelp.com/biz/medusa-the-greek-brooklyn?adjust_creative=7L58B9086saOW4zCCye5mg&utm_campaign=yelp_api_v3&utm_medium=api_v3_business_search&utm_source=7L58B9086saOW4zCCye5mg
W New York - Union Square,1,Paul & Jimmy's,0.892,3.9,$$$,3.0,108.8,italian,40.73682,-73.987251,https://www.yelp.com/biz/paul-and-jimmys-new-york?adjust_creative=7L58B9086saOW4zCCye5mg&utm_campaign=yelp_api_v3&utm_medium=api_v3_business_search&utm_source=7L58B9086saOW4zCCye5mg
W New York - Union Square,2,Yama,0.879,3.7,$$,2.0,104.2,"japanese,sushi",40.73590516663025,-73.98767988956808,https://www.yelp.com/biz/yama-new-york?adjust_creative=7L58B9086saOW4zCCye5mg&utm_campaign=yelp_api_v3&utm_medium=api_v3_business_search&utm_source=7L58B9086saOW4zCCye5mg
W New York - Union Square,3,The Stand Comedy Club & Restaurant,0.877,3.8,$$,2.0,137.6,"comedyclubs,cocktailbars,italian",40.73542,-73.98835,https://www.yelp.com/biz/the-stand-comedy-club-and-restaurant-new-york-3?adjust_creative=7L58B9086saOW4zCCye5mg&utm_campaign=yelp_api_v3&utm_medium=api_v3_business_search&utm_source=7L58B9086saOW4zCCye5mg
W New York - Union Square,4,Boucherie Union Square,0.784,4.4,$$$,3.0,80.4,"steak,french,cocktailbars",40.73725824850519,-73.9882252705524,https://www.yelp.com/biz/boucherie-union-square-new-york-2?adjust_creative=7L58B9086saOW4zCCye5mg&utm_campaign=yelp_api_v3&utm_medium=api_v3_business_search&utm_source=7L58B9086saOW4zCCye5mg
W New York - Union Square,5,Oceans New York,0.783,4.5,$$$,3.0,112.1,"seafood,wine_bars,sushi",40.737408,-73.987887,https://www.yelp.com/biz/oceans-new-york-new-york?adjust_creative=7L58B9086saOW4zCCye5mg&utm_campaign=yelp_api_v3&utm_medium=api_v3_business_search&utm_source=7L58B9086saOW4zCCye5mg
