hotel_name,yelp_business_id,restaurant_name,rating,price,categories,restaurant_lat,restaurant_lon,distance_m,url
New York Marriott Marquis,vyjGW5fqWjxM7i-2cX_Zxw,Slice Of NY Pizza,1.8,$,['pizza'],40.7586784362793,-73.9862899780273,8.967794728146592,https://www.yelp.com/biz/slice-of-ny-pizza-new-york?adjust_creative=7L58B9086saOW4zCCye5mg&utm_campaign=yelp_api_v3&utm_medium=api_v3_business_search&utm_source=7L58B9086saOW4zCCye5mg
New York Marriott Marquis,RknwClyaQ14rAWl1Bcofgw,Revel and Rye,3.4,,['newamerican'],40.75871504159434,-73.98622,10.902041160322572,https://www.yelp.com/biz/revel-and-rye-new-york?adjust_creative=7L58B9086saOW4zCCye5mg&utm_campaign=yelp_api_v3&utm_medium=api_v3_business_search&utm_source=7L58B9086saOW4zCCye5mg
New York Marriott Marquis,bpOgimL_paWkF1AusXE8cA,The View Restaurant & Lounge,3.2,$$$$,"['lounges', 'newamerican']",40.758638,-73.986193,12.031572533561157,https://www.yelp.com/biz/the-view-restaurant-and-lounge-new-york?adjust_creative=7L58B9086saOW4zCCye5mg&utm_campaign=yelp_api_v3&utm_medium=api_v3_business_search&utm_source=7L58B9086saOW4zCCye5mg
New York Marriott Marquis,SpEwWcVxEQ8DO0U9Cxi2YA,Le Petit Chef,3.7,,"['newamerican', 'wine_bars', 'cocktailbars']",40.75863,-73.986162,12.031572533561157,https://www.yelp.com/biz/le-petit-chef-new-york?adjust_creative=7L58B9086saOW4zCCye5mg&utm_campaign=yelp_api_v3&utm_medium=api_v3_business_search&utm_source=7L58B9086saOW4zCCye5mg
New York Marriott Marquis,8UE6djZm_RkoSPdUsW6yjQ,The View,4.3,,"['lounges', 'tradamerican', 'cocktailbars']",40.75873736147128,-73.98622,13.383835152876324,https://www.yelp.com/biz/the-view-new-york-5?adjust_creative=7L58B9086saOW4zCCye5mg&utm_campaign=yelp_api_v3&utm_medium=api_v3_business_search&utm_source=7L58B9086saOW4zCCye5mg
New York Marriott Marquis,kbZvxO5ZKbf8BKJks3yfag,Crossroads American Kitchen & Bar,2.9,$$,"['tradamerican', 'breakfast_brunch', 'cocktailbars']",40.7585664993289,-73.9859582956314,22.82808017560817,https://www.yelp.com/biz/crossroads-american-kitchen-and-bar-new-york?adjust_creative=7L58B9086saOW4zCCye5mg&utm_campaign=yelp_api_v3&utm_medium=api_v3_business_search&utm_source=7L58B9086saOW4zCCye5mg
New York Marriott Marquis,Z1fx8D8YYqhMj-iquFbDdA,Broadway Lounge,3.8,$$,"['lounges', 'tapasmallplates', 'cocktailbars']",40.758579,-73.9858202,34.02135383425071,https://www.yelp.com/biz/broadway-lounge-new-york-2?adjust_creative=7L58B9086saOW4zCCye5mg&utm_campaign=yelp_api_v3&utm_medium=api_v3_business_search&utm_source=7L58B9086saOW4zCCye5mg
New York Marriott Marquis,e3UVFN_8mzBay1T9USYUfw,Charlie O's,1.4,,['restaurants'],40.7580474,-73.9861209,49.080899955262275,https://www.yelp.com/biz/charlie-os-new-york?adjust_creative=7L58B9086saOW4zCCye5mg&utm_campaign=yelp_api_v3&utm_medium=api_v3_business_search&utm_source=7L58B9086saOW4zCCye5mg
New York Marriott Marquis,kfyW0v5rZYFytV0Dfzn0ag,Family diner,0.0,,['breakfast_brunch'],40.75903,-73.98674,54.55372982427602,https://www.yelp.com/biz/family-diner-new-york?adjust_creative=7L58B9086saOW4zCCye5mg&utm_campaign=yelp_api_v3&utm_medium=api_v3_business_search&utm_source=7L58B9086saOW4zCCye5mg
New York Marriott Marquis,oW0_hs40da9twmJTGDOvJg,Anita Gelato,4.6,$$,"['gelato', 'waffles', 'icecream']",40.75822198249963,-73.9858005,56.424225015586266,https://www.yelp.com/biz/anita-gelato-new-york-4?adjust_creative=7L58B9086saOW4zCCye5mg&utm_campaign=yelp_api_v3&utm_medium=api_v3_business_search&utm_source=7L58B9086saOW4zCCye5mg
New York Marriott Marquis,8-Ug0Zjs5sL6MARspRJ7CA,Bond 45,3.7,$$$,"['italian', 'pizza', 'newamerican']",40.7591637016814,-73.9859788257256,64.12116654771782,https://www.yelp.com/biz/bond-45-new-york-2?adjust_creative=7L58B9086saOW4zCCye5mg&utm_campaign=yelp_api_v3&utm_medium=api_v3_business_search&utm_source=7L58B9086saOW4zCCye5mg
New York Marriott Marquis,rACwlm7aaEdKU7ko3h-pSw,Nuchas - Times Square,3.6,$,"['foodstands', 'argentine']",40.759093,-73.985142,105.1694433345747,https://www.yelp.com/biz/nuchas-times-square-new-york-4?adjust_creative=7L58B9086saOW4zCCye5mg&utm_campaign=yelp_api_v3&utm_medium=api_v3_business_search&utm_source=7L58B9086saOW4zCCye5mg
New York Marriott Marquis,TgUv8hOhaV4wsRGrkhyCsA,TaHan Sushi,1.0,$$,"['sushi', 'asianfusion', 'japanese']",40.757743,-73.985719,105.98368041532416,https://www.yelp.com/biz/tahan-sushi-new-york-2?adjust_creative=7L58B9086saOW4zCCye5mg&utm_campaign=yelp_api_v3&utm_medium=api_v3_business_search&utm_source=7L58B9086saOW4zCCye5mg
New York Marriott Marquis,DJSLGbSqCJ1W8ma3LFlMuw,Patzeria Perfect Pizza,4.0,$,"['pizza', 'italian', 'pastashops']",40.75949451155184,-73.98673451962638,106.73110413954599,https://www.yelp.com/biz/patzeria-perfect-pizza-new-york?adjust_creative=7L58B9086saOW4zCCye5mg&utm_campaign=yelp_api_v3&utm_medium=api_v3_business_search&utm_source=7L58B9086saOW4zCCye5mg
New York Marriott Marquis,sDyLFcl6RchLGei0HajjEA,Cocopazzo Teatro Restaurant,0.0,,['restaurants'],40.75954,-73.98709,112.6509780166052,https://www.yelp.com/biz/cocopazzo-teatro-restaurant-new-york?adjust_creative=7L58B9086saOW4zCCye5mg&utm_campaign=yelp_api_v3&utm_medium=api_v3_business_search&utm_source=7L58B9086saOW4zCCye5mg
New York Marriott Marquis,-YVxq3Yvk9EDYjMPZpy7zA,Le Parisien,3.0,,"['french', 'coffee', 'bakeries']",40.759624,-73.987009,112.6509780166052,https://www.yelp.com/biz/le-parisien-new-york-14?adjust_creative=7L58B9086saOW4zCCye5mg&utm_campaign=yelp_api_v3&utm_medium=api_v3_business_search&utm_source=7L58B9086saOW4zCCye5mg
New York Marriott Marquis,2iwT3iutZvmqzmu7oOkWFw,Dos Caminos,3.7,$$,"['mexican', 'bars']",40.7593727,-73.9853281,112.76907135955247,https://www.yelp.com/biz/dos-caminos-new-york-7?adjust_creative=7L58B9086saOW4zCCye5mg&utm_campaign=yelp_api_v3&utm_medium=api_v3_business_search&utm_source=7L58B9086saOW4zCCye5mg
New York Marriott Marquis,8jIuTAN6C-Z6GmVHrs25pg,val cafe,3.0,,['cafes'],40.75863533,-73.98487583,113.31710532773121,https://www.yelp.com/biz/val-cafe-new-york?adjust_creative=7L58B9086saOW4zCCye5mg&utm_campaign=yelp_api_v3&utm_medium=api_v3_business_search&utm_source=7L58B9086saOW4zCCye5mg
New York Marriott Marquis,LevaZe9HJHteg4nSp-pt2g,Blue Fin,3.6,$$$,"['sushi', 'seafood']",40.75938704552367,-73.9853252,114.12399037869709,https://www.yelp.com/biz/blue-fin-new-york?adjust_creative=7L58B9086saOW4zCCye5mg&utm_campaign=yelp_api_v3&utm_medium=api_v3_business_search&utm_source=7L58B9086saOW4zCCye5mg
New York Marriott Marquis,ddKmJRZ3D1iS-gbZq03OWQ,Friedman's,3.8,$$,"['breakfast_brunch', 'tradamerican']",40.75966291084829,-73.9862186032181,116.30002626443589,https://www.yelp.com/biz/friedmans-new-york-63?adjust_creative=7L58B9086saOW4zCCye5mg&utm_campaign=yelp_api_v3&utm_medium=api_v3_business_search&utm_source=7L58B9086saOW4zCCye5mg
New York Marriott Marquis,5gVOw3RTaZ-NavNQx2M83g,Gayle's Broadway Rose,4.3,$$,"['newamerican', 'theater', 'dinnertheater']",40.7596626938107,-73.9862253357964,116.27629107691286,https://www.yelp.com/biz/gayles-broadway-rose-new-york?adjust_creative=7L58B9086saOW4zCCye5mg&utm_campaign=yelp_api_v3&utm_medium=api_v3_business_search&utm_source=7L58B9086saOW4zCCye5mg
New York Marriott Marquis,tItXLvz3qsgKuu9Qs9CAhQ,McDonald's,2.0,,"['hotdogs', 'coffee', 'burgers']",40.757749,-73.9854003,118.71739127726511,https://www.yelp.com/biz/mcdonalds-new-york-442?adjust_creative=7L58B9086saOW4zCCye5mg&utm_campaign=yelp_api_v3&utm_medium=api_v3_business_search&utm_source=7L58B9086saOW4zCCye5mg
New York Marriott Marquis,U5hCNNyJmb7f3dmC1HTzSQ,Junior's Restaurant,4.0,$$,"['bakeries', 'breakfast_brunch', 'burgers']",40.75754728725579,-73.98608001118411,119.5378047726524,https://www.yelp.com/biz/juniors-restaurant-new-york-9?adjust_creative=7L58B9086saOW4zCCye5mg&utm_campaign=yelp_api_v3&utm_medium=api_v3_business_search&utm_source=7L58B9086saOW4zCCye5mg
New York Marriott Marquis,lr5v9m6eTtPtwRckSoeWcg,O’Caseys Bar and Restaurant,0.0,,"['desserts', 'bars', 'turkish']",40.759363,-73.987234,119.82497871917795,https://www.yelp.com/biz/o-caseys-bar-and-restaurant-new-york?adjust_creative=7L58B9086saOW4zCCye5mg&utm_campaign=yelp_api_v3&utm_medium=api_v3_business_search&utm_source=7L58B9086saOW4zCCye5mg
New York Marriott Marquis,VLpECftt2hdElwSDW5JR6A,Kebab Knish Cart,3.0,,"['halal', 'foodstands', 'pretzels']",40.75942467703467,-73.98523267093891,122.4545589688526,https://www.yelp.com/biz/kebab-knish-cart-new-york?adjust_creative=7L58B9086saOW4zCCye5mg&utm_campaign=yelp_api_v3&utm_medium=api_v3_business_search&utm_source=7L58B9086saOW4zCCye5mg
New York Marriott Marquis,dcrbv8ff8ulppf_h_EUp_g,Frosty's Christmas Bar,2.7,,"['popuprestaurants', 'cocktailbars']",40.75771530131121,-73.987068,123.05421013974863,https://www.yelp.com/biz/frostys-christmas-bar-new-york?adjust_creative=7L58B9086saOW4zCCye5mg&utm_campaign=yelp_api_v3&utm_medium=api_v3_business_search&utm_source=7L58B9086saOW4zCCye5mg
New York Marriott Marquis,0jL_7Lw8i7K0ailwbNBEug,Nyc Hot Dogs,2.8,$$,"['pretzels', 'hotdog']",40.75759,-73.98562,124.91356300701729,https://www.yelp.com/biz/nyc-hot-dogs-new-york?adjust_creative=7L58B9086saOW4zCCye5mg&utm_campaign=yelp_api_v3&utm_medium=api_v3_business_search&utm_source=7L58B9086saOW4zCCye5mg
New York Marriott Marquis,bJpAU1fupCz1mQSmPhDoBw,Val Pizza,4.4,,['pizza'],40.758324,-73.984787,126.19123619889795,https://www.yelp.com/biz/val-pizza-new-york?adjust_creative=7L58B9086saOW4zCCye5mg&utm_campaign=yelp_api_v3&utm_medium=api_v3_business_search&utm_source=7L58B9086saOW4zCCye5mg
New York Marriott Marquis,iwYikO5BVDVvBEuS6fQunw,The Murder Mystery,0.0,,"['speakeasies', 'dinnertheater', 'theater']",40.7574754,-73.98660631165691,131.02290592153264,https://www.yelp.com/biz/the-murder-mystery-new-york-2?adjust_creative=7L58B9086saOW4zCCye5mg&utm_campaign=yelp_api_v3&utm_medium=api_v3_business_search&utm_source=7L58B9086saOW4zCCye5mg
New York Marriott Marquis,22nKUyCIbpnzR6R3_g1ptQ,Carmine's - Time Square,4.0,$$$,"['italian', 'venues', 'seafood']",40.75747,-73.9866,131.47464496443106,https://www.yelp.com/biz/carmines-time-square-new-york-2?adjust_creative=7L58B9086saOW4zCCye5mg&utm_campaign=yelp_api_v3&utm_medium=api_v3_business_search&utm_source=7L58B9086saOW4zCCye5mg
New York Marriott Marquis,seXjATir5SIPL0mi2lgNtA,Double Zero,0.0,,"['fooddeliveryservices', 'pizza', 'vegan']",40.7597,-73.98734,131.87964210175807,https://www.yelp.com/biz/double-zero-new-york-4?adjust_creative=7L58B9086saOW4zCCye5mg&utm_campaign=yelp_api_v3&utm_medium=api_v3_business_search&utm_source=7L58B9086saOW4zCCye5mg
New York Marriott Marquis,mjtG4tXMcGYkS5hdPnCOgg,Umami Express,0.0,,"['asianfusion', 'gluten_free', 'newamerican']",40.7597,-73.98734,131.87964210175807,https://www.yelp.com/biz/umami-express-new-york?adjust_creative=7L58B9086saOW4zCCye5mg&utm_campaign=yelp_api_v3&utm_medium=api_v3_business_search&utm_source=7L58B9086saOW4zCCye5mg
New York Marriott Marquis,7InNKuCrcRrDKWNjBDEGXA,Ginger & Glatt,3.0,,"['kosher', 'newamerican', 'tradamerican']",40.7597,-73.98734,131.87964210175807,https://www.yelp.com/biz/ginger-and-glatt-new-york?adjust_creative=7L58B9086saOW4zCCye5mg&utm_campaign=yelp_api_v3&utm_medium=api_v3_business_search&utm_source=7L58B9086saOW4zCCye5mg
New York Marriott Marquis,KPEzTotnStT_xRkqKmfT_Q,Picnic Digital Food Court,0.0,,['food_court'],40.7597,-73.98734,131.87964210175807,https://www.yelp.com/biz/picnic-digital-food-court-new-york?adjust_creative=7L58B9086saOW4zCCye5mg&utm_campaign=yelp_api_v3&utm_medium=api_v3_business_search&utm_source=7L58B9086saOW4zCCye5mg
New York Marriott Marquis,2v7V3O80E_zvUi6bj48SpQ,Flavors Pizza,3.5,,['pizza'],40.7597,-73.98734,131.87964210175807,https://www.yelp.com/biz/flavors-pizza-new-york?adjust_creative=7L58B9086saOW4zCCye5mg&utm_campaign=yelp_api_v3&utm_medium=api_v3_business_search&utm_source=7L58B9086saOW4zCCye5mg
New York Marriott Marquis,Vyjq6JeNWMmZY04IBkJqog,Irie Jerk,1.0,,"['caribbean', 'spanish']",40.7597,-73.98734,131.87964210175807,https://www.yelp.com/biz/irie-jerk-new-york?adjust_creative=7L58B9086saOW4zCCye5mg&utm_campaign=yelp_api_v3&utm_medium=api_v3_business_search&utm_source=7L58B9086saOW4zCCye5mg
New York Marriott Marquis,MntuLlHqTPqzHl5clSLMjQ,Midtown Cheesesteak,4.5,,['cheesesteaks'],40.759641,-73.987011,131.87964210175807,https://www.yelp.com/biz/midtown-cheesesteak-new-york-3?adjust_creative=7L58B9086saOW4zCCye5mg&utm_campaign=yelp_api_v3&utm_medium=api_v3_business_search&utm_source=7L58B9086saOW4zCCye5mg
New York Marriott Marquis,75EeAJz31Sa-lltufSLcAQ,Eat Seafood,4.7,,"['thai', 'seafood']",40.75964099999999,-73.987011,131.87964210175807,https://www.yelp.com/biz/eat-seafood-new-york?adjust_creative=7L58B9086saOW4zCCye5mg&utm_campaign=yelp_api_v3&utm_medium=api_v3_business_search&utm_source=7L58B9086saOW4zCCye5mg
New York Marriott Marquis,nZukgpiz19wtQmi3UxPXIQ,Grace ThaiNY,5.0,,['thai'],40.7597,-73.98734,131.87964210175807,https://www.yelp.com/biz/grace-thai-ny-new-york?adjust_creative=7L58B9086saOW4zCCye5mg&utm_campaign=yelp_api_v3&utm_medium=api_v3_business_search&utm_source=7L58B9086saOW4zCCye5mg
New York Marriott Marquis,W1QeE56tf2v1XtjaqHbXEA,Twentyonegrains,4.0,,"['gluten_free', 'salad', 'wraps']",40.7597,-73.98734,131.87964210175807,https://www.yelp.com/biz/twentyonegrains-new-york-5?adjust_creative=7L58B9086saOW4zCCye5mg&utm_campaign=yelp_api_v3&utm_medium=api_v3_business_search&utm_source=7L58B9086saOW4zCCye5mg
New York Marriott Marquis,R77JPNrA7EQybGCzd5wnVQ,Thai Eats ,5.0,,['thai'],40.7597,-73.98734,131.87964210175807,https://www.yelp.com/biz/thai-eats-new-york-4?adjust_creative=7L58B9086saOW4zCCye5mg&utm_campaign=yelp_api_v3&utm_medium=api_v3_business_search&utm_source=7L58B9086saOW4zCCye5mg
New York Marriott Marquis,HIcBIF5qQLhQDmCVVzM4XQ,Ben's Fast Food,3.5,,"['newamerican', 'hotdogs', 'gluten_free']",40.7597,-73.98734,131.87964210175807,https://www.yelp.com/biz/bens-fast-food-new-york?adjust_creative=7L58B9086saOW4zCCye5mg&utm_campaign=yelp_api_v3&utm_medium=api_v3_business_search&utm_source=7L58B9086saOW4zCCye5mg
New York Marriott Marquis,sAx8zrP_Z1TNLYkFtYU0Vw,Jak’s,0.0,,['newamerican'],40.757434,-73.986695,132.88071550521778,https://www.yelp.com/biz/jak-s-new-york?adjust_creative=7L58B9086saOW4zCCye5mg&utm_campaign=yelp_api_v3&utm_medium=api_v3_business_search&utm_source=7L58B9086saOW4zCCye5mg
New York Marriott Marquis,WHY_clMkVCIDggOrg1zxYQ,Crispy Karma,0.0,,"['hotdogs', 'chicken_wings', 'burgers']",40.759652985395846,-73.987011,133.03198928145488,https://www.yelp.com/biz/crispy-karma-new-york-3?adjust_creative=7L58B9086saOW4zCCye5mg&utm_campaign=yelp_api_v3&utm_medium=api_v3_business_search&utm_source=7L58B9086saOW4zCCye5mg
New York Marriott Marquis,ef8XQ9hrW5ANwA-oxnUyGA,Bistro46,5.0,,"['french', 'wine_bars', 'tapasmallplates']",40.759776,-73.988232,134.6484201588087,https://www.yelp.com/biz/bistro46-new-york?adjust_creative=7L58B9086saOW4zCCye5mg&utm_campaign=yelp_api_v3&utm_medium=api_v3_business_search&utm_source=7L58B9086saOW4zCCye5mg
New York Marriott Marquis,PoZ0FRYyVoEfMbw3oleINg,Raising Cane's Chicken Fingers,3.8,$$,"['chicken_wings', 'hotdogs']",40.7573616,-73.98627993275956,139.68217955204568,https://www.yelp.com/biz/raising-canes-chicken-fingers-new-york-2?adjust_creative=7L58B9086saOW4zCCye5mg&utm_campaign=yelp_api_v3&utm_medium=api_v3_business_search&utm_source=7L58B9086saOW4zCCye5mg
New York Marriott Marquis,o30waVOiebr0h4KcaZmPjg,Dilli Dilli,4.0,,['indpak'],40.75985202962637,-73.9867021,143.1822829980553,https://www.yelp.com/biz/dilli-dilli-new-york?adjust_creative=7L58B9086saOW4zCCye5mg&utm_campaign=yelp_api_v3&utm_medium=api_v3_business_search&utm_source=7L58B9086saOW4zCCye5mg
New York Marriott Marquis,Fv6ueSQwc_ITpXEhybHvtA,RA Sushi,3.7,$$,"['japanese', 'sushi']",40.757596,-73.987384,147.42678009117094,https://www.yelp.com/biz/ra-sushi-new-york?adjust_creative=7L58B9086saOW4zCCye5mg&utm_campaign=yelp_api_v3&utm_medium=api_v3_business_search&utm_source=7L58B9086saOW4zCCye5mg
New York Marriott Marquis,cw7K31iO2tb5drMtqZ9F8w,Sardi's,3.5,$$$,"['tradamerican', 'italian', 'steak']",40.75789,-73.98755,148.50598449028266,https://www.yelp.com/biz/sardis-new-york?adjust_creative=7L58B9086saOW4zCCye5mg&utm_campaign=yelp_api_v3&utm_medium=api_v3_business_search&utm_source=7L58B9086saOW4zCCye5mg
New York Marriott Marquis,Tq9syH1HCQC9rmPKlmUOnQ,Cinnaholic,3.0,,"['bakeries', 'desserts', 'vegan']",40.75981,-73.98702,148.74892562338155,https://www.yelp.com/biz/cinnaholic-new-york-2?adjust_creative=7L58B9086saOW4zCCye5mg&utm_campaign=yelp_api_v3&utm_medium=api_v3_business_search&utm_source=7L58B9086saOW4zCCye5mg
Courtyard New York Manhattan/Midtown East,sHQlr-WQD7rcGhRK9bFA6g,Restaurants,0.0,,['restaurants'],40.757519,-73.970047,7.103765815575829,https://www.yelp.com/biz/restaurants-new-york-5?adjust_creative=7L58B9086saOW4zCCye5mg&utm_campaign=yelp_api_v3&utm_medium=api_v3_business_search&utm_source=7L58B9086saOW4zCCye5mg
Courtyard New York Manhattan/Midtown East,BRLE5XevGOMsaVPQuKRGTw,Table 866,3.3,,"['coffee', 'breakfast_brunch']",40.7575426,-73.9700204,12.692707279690291,https://www.yelp.com/biz/table-866-new-york?adjust_creative=7L58B9086saOW4zCCye5mg&utm_campaign=yelp_api_v3&utm_medium=api_v3_business_search&utm_source=7L58B9086saOW4zCCye5mg
Courtyard New York Manhattan/Midtown East,cHxbqddyJmRPKLLorvBmcA,Burritoville,0.0,,['cafes'],40.757519,-73.970047,14.731013857904669,https://www.yelp.com/biz/burritoville-new-york-20?adjust_creative=7L58B9086saOW4zCCye5mg&utm_campaign=yelp_api_v3&utm_medium=api_v3_business_search&utm_source=7L58B9086saOW4zCCye5mg
Courtyard New York Manhattan/Midtown East,YKJUmLS1A8TD1ufwVcxdYQ,Jersey Mike's Subs,3.8,,"['hotdogs', 'delis', 'sandwiches']",40.75736,-73.97019,24.752940992300598,https://www.yelp.com/biz/jersey-mikes-subs-new-york-12?adjust_creative=7L58B9086saOW4zCCye5mg&utm_campaign=yelp_api_v3&utm_medium=api_v3_business_search&utm_source=7L58B9086saOW4zCCye5mg
Courtyard New York Manhattan/Midtown East,f9b1I3y3E2QaBkAuhXMqWQ,Ume Japanese Restaurant,2.3,$$,['japanese'],40.7576256,-73.970787,29.845538154687947,https://www.yelp.com/biz/ume-japanese-restaurant-new-york?adjust_creative=7L58B9086saOW4zCCye5mg&utm_campaign=yelp_api_v3&utm_medium=api_v3_business_search&utm_source=7L58B9086saOW4zCCye5mg
Courtyard New York Manhattan/Midtown East,YchMTqpM6xksrpqXR0YUrQ,Xeno’s Pizza,4.1,,['pizza'],40.75728,-73.97008,30.702953537267675,https://www.yelp.com/biz/xeno-s-pizza-new-york?adjust_creative=7L58B9086saOW4zCCye5mg&utm_campaign=yelp_api_v3&utm_medium=api_v3_business_search&utm_source=7L58B9086saOW4zCCye5mg
Courtyard New York Manhattan/Midtown East,wbX0m8zJr2mg-x0N8QjHKg,The Atrium Shops & Cafes,3.7,$,"['shoppingcenters', 'cafes']",40.7576563963533,-73.9696109360517,34.615727211030574,https://www.yelp.com/biz/the-atrium-shops-and-cafes-new-york?adjust_creative=7L58B9086saOW4zCCye5mg&utm_campaign=yelp_api_v3&utm_medium=api_v3_business_search&utm_source=7L58B9086saOW4zCCye5mg
Courtyard New York Manhattan/Midtown East,bOIB2O7J2bSt4tky287JNA,Wako Internatl Corporation,0.0,,['restaurants'],40.75743,-73.97042,38.16843917292474,https://www.yelp.com/biz/wako-internatl-corporation-new-york?adjust_creative=7L58B9086saOW4zCCye5mg&utm_campaign=yelp_api_v3&utm_medium=api_v3_business_search&utm_source=7L58B9086saOW4zCCye5mg
Courtyard New York Manhattan/Midtown East,T2Nhyug4f_bl6Nb9XCoqMw,Hyo Tan Nippon Restaurant,0.0,,['salad'],40.75743,-73.97042,38.16843917292474,https://www.yelp.com/biz/hyo-tan-nippon-restaurant-new-york?adjust_creative=7L58B9086saOW4zCCye5mg&utm_campaign=yelp_api_v3&utm_medium=api_v3_business_search&utm_source=7L58B9086saOW4zCCye5mg
Courtyard New York Manhattan/Midtown East,kCpKwCW49k3ImuI5cK6LSw,Gu Japanese Fusion Sushi & Bar,3.9,$$,"['japanese', 'sushi', 'bars']",40.75743,-73.97042,38.16843917292474,https://www.yelp.com/biz/gu-japanese-fusion-sushi-and-bar-new-york?adjust_creative=7L58B9086saOW4zCCye5mg&utm_campaign=yelp_api_v3&utm_medium=api_v3_business_search&utm_source=7L58B9086saOW4zCCye5mg
Courtyard New York Manhattan/Midtown East,QJTLAOMNvhV1_jPfcQ_qPw,Nippon,3.8,$$$,"['sushi', 'japanese', 'desserts']",40.75743,-73.97042,38.16843917292474,https://www.yelp.com/biz/nippon-new-york?adjust_creative=7L58B9086saOW4zCCye5mg&utm_campaign=yelp_api_v3&utm_medium=api_v3_business_search&utm_source=7L58B9086saOW4zCCye5mg
Courtyard New York Manhattan/Midtown East,G9kWfSnkxSQKruH2oBK89w,AKO Japanese Restaurant,3.3,,['ramen'],40.7572912,-73.970394,43.55920219478881,https://www.yelp.com/biz/ako-japanese-restaurant-manhattan-2?adjust_creative=7L58B9086saOW4zCCye5mg&utm_campaign=yelp_api_v3&utm_medium=api_v3_business_search&utm_source=7L58B9086saOW4zCCye5mg
Courtyard New York Manhattan/Midtown East,lFsctNqFgsqfmQagsxHtyg,Fields Good Chicken,3.5,,"['salad', 'chickenshop', 'newamerican']",40.7575504,-73.9706234,59.85206189166842,https://www.yelp.com/biz/fields-good-chicken-new-york-7?adjust_creative=7L58B9086saOW4zCCye5mg&utm_campaign=yelp_api_v3&utm_medium=api_v3_business_search&utm_source=7L58B9086saOW4zCCye5mg
Courtyard New York Manhattan/Midtown East,qTJMdXux2cgpeA0CK8KETg,Sola Pasta Kart 1,2.8,,"['italian', 'pastashops', 'foodtrucks']",40.7572450055105,-73.9682699922659,60.25422297285546,https://www.yelp.com/biz/sola-pasta-kart-1-new-york?adjust_creative=7L58B9086saOW4zCCye5mg&utm_campaign=yelp_api_v3&utm_medium=api_v3_business_search&utm_source=7L58B9086saOW4zCCye5mg
Courtyard New York Manhattan/Midtown East,lV9TCH9AwdBpFKm0OMAXSA,Potbelly Sandwich Shop,3.4,$,"['sandwiches', 'hotdogs', 'salad']",40.7572917,-73.970623,61.59726706845287,https://www.yelp.com/biz/potbelly-sandwich-shop-new-york-8?adjust_creative=7L58B9086saOW4zCCye5mg&utm_campaign=yelp_api_v3&utm_medium=api_v3_business_search&utm_source=7L58B9086saOW4zCCye5mg
Courtyard New York Manhattan/Midtown East,WhpYUl9BgMkiCpHYAsU9UA,Subway,3.8,$,"['hotdogs', 'sandwiches']",40.7572283,-73.9692247,64.06709270879314,https://www.yelp.com/biz/subway-new-york-402?adjust_creative=7L58B9086saOW4zCCye5mg&utm_campaign=yelp_api_v3&utm_medium=api_v3_business_search&utm_source=7L58B9086saOW4zCCye5mg
Courtyard New York Manhattan/Midtown East,iGmQlzlI4g2ky8cogfDpnQ,SUGARFISH | Midtown East,4.2,,"['sushi', 'japanese']",40.7579096,-73.9702782,67.87895046180726,https://www.yelp.com/biz/sugarfish-midtown-east-new-york?adjust_creative=7L58B9086saOW4zCCye5mg&utm_campaign=yelp_api_v3&utm_medium=api_v3_business_search&utm_source=7L58B9086saOW4zCCye5mg
Courtyard New York Manhattan/Midtown East,1hY3ldzl_kxyMP_l5EcFlQ,Atto Sushi,4.7,,"['japanese', 'sushi']",40.75720669829733,-73.96918747638298,67.90122491987393,https://www.yelp.com/biz/atto-sushi-new-york?adjust_creative=7L58B9086saOW4zCCye5mg&utm_campaign=yelp_api_v3&utm_medium=api_v3_business_search&utm_source=7L58B9086saOW4zCCye5mg
Courtyard New York Manhattan/Midtown East,aK2ipD9K8-usBw_gkvvJuw,Nare Sushi,3.8,$$$,"['sushi', 'japanese', 'cocktailbars']",40.75719922066617,-73.96918797126257,68.20538302236965,https://www.yelp.com/biz/nare-sushi-new-york?adjust_creative=7L58B9086saOW4zCCye5mg&utm_campaign=yelp_api_v3&utm_medium=api_v3_business_search&utm_source=7L58B9086saOW4zCCye5mg
Courtyard New York Manhattan/Midtown East,UlLBIi6BB-DhpZ0K46KvBA,Chopt Creative Salad Co.,3.2,,"['salad', 'vegetarian']",40.7572,-73.969178,68.61500153590325,https://www.yelp.com/biz/chopt-creative-salad-co-new-york-50?adjust_creative=7L58B9086saOW4zCCye5mg&utm_campaign=yelp_api_v3&utm_medium=api_v3_business_search&utm_source=7L58B9086saOW4zCCye5mg
Courtyard New York Manhattan/Midtown East,ZZ0Tx5ijCXtpuVTW7dQFhQ,875 Sushi,0.0,$,['sushi'],40.75722,-73.96919,68.61500153590325,https://www.yelp.com/biz/875-sushi-new-york?adjust_creative=7L58B9086saOW4zCCye5mg&utm_campaign=yelp_api_v3&utm_medium=api_v3_business_search&utm_source=7L58B9086saOW4zCCye5mg
Courtyard New York Manhattan/Midtown East,HgCYzVBh7QWlb32XnYankg,Itavolo,3.3,,['italian'],40.7571941240449,-73.9691857248545,68.61490986668746,https://www.yelp.com/biz/itavolo-new-york?adjust_creative=7L58B9086saOW4zCCye5mg&utm_campaign=yelp_api_v3&utm_medium=api_v3_business_search&utm_source=7L58B9086saOW4zCCye5mg
Courtyard New York Manhattan/Midtown East,REWoI9PjWcY9MNbLmSijjg,Cafe Hatou,4.4,,"['coffee', 'cocktailbars', 'japanese']",40.7572,-73.969178,68.61500153590325,https://www.yelp.com/biz/cafe-hatou-new-york?adjust_creative=7L58B9086saOW4zCCye5mg&utm_campaign=yelp_api_v3&utm_medium=api_v3_business_search&utm_source=7L58B9086saOW4zCCye5mg
Courtyard New York Manhattan/Midtown East,iOP5--ysHdx8tllieeSsig,Sushi Jun,2.8,$,"['japanese', 'korean']",40.75722,-73.96919,68.95998225122243,https://www.yelp.com/biz/sushi-jun-new-york-2?adjust_creative=7L58B9086saOW4zCCye5mg&utm_campaign=yelp_api_v3&utm_medium=api_v3_business_search&utm_source=7L58B9086saOW4zCCye5mg
Courtyard New York Manhattan/Midtown East,1J9PgUILRZv_wQvOhvTppA,Yummy Sushi,2.0,,['sushi'],40.757217,-73.969177,69.19556249719489,https://www.yelp.com/biz/yummy-sushi-new-york-3?adjust_creative=7L58B9086saOW4zCCye5mg&utm_campaign=yelp_api_v3&utm_medium=api_v3_business_search&utm_source=7L58B9086saOW4zCCye5mg
Courtyard New York Manhattan/Midtown East,Ch07NVXhDUrxPAisAGSobw,3 Sixty Stir,0.0,,"['salad', 'newamerican', 'sandwiches']",40.75722,-73.96919,69.19556249719489,https://www.yelp.com/biz/3-sixty-stir-new-york?adjust_creative=7L58B9086saOW4zCCye5mg&utm_campaign=yelp_api_v3&utm_medium=api_v3_business_search&utm_source=7L58B9086saOW4zCCye5mg
Courtyard New York Manhattan/Midtown East,Vs8MQYXlpSPZrVmHQkCHAg,Paradise Catering,0.0,,"['catering', 'delis']",40.75722,-73.96919,69.19556249719489,https://www.yelp.com/biz/paradise-catering-new-york-2?adjust_creative=7L58B9086saOW4zCCye5mg&utm_campaign=yelp_api_v3&utm_medium=api_v3_business_search&utm_source=7L58B9086saOW4zCCye5mg
Courtyard New York Manhattan/Midtown East,YDzygPhlc5fSE552u6hEWw,Gourmet 53,4.1,$,['newamerican'],40.75722,-73.96919,69.19556249719489,https://www.yelp.com/biz/gourmet-53-new-york?adjust_creative=7L58B9086saOW4zCCye5mg&utm_campaign=yelp_api_v3&utm_medium=api_v3_business_search&utm_source=7L58B9086saOW4zCCye5mg
Courtyard New York Manhattan/Midtown East,SiHdaFDDD2Q7NRdpmb7DsQ,Avocaderia,0.0,,"['salad', 'juicebars', 'breakfast_brunch']",40.75808,-73.97001,69.62000646687476,https://www.yelp.com/biz/avocaderia-new-york-5?adjust_creative=7L58B9086saOW4zCCye5mg&utm_campaign=yelp_api_v3&utm_medium=api_v3_business_search&utm_source=7L58B9086saOW4zCCye5mg
Courtyard New York Manhattan/Midtown East,ZQMg4nEqnEKzGoPUszkL1w,Kotti Berliner Doner Kebab,2.8,,['kebab'],40.7580782,-73.97000425607794,69.64683949836125,https://www.yelp.com/biz/kotti-berliner-doner-kebab-new-york-2?adjust_creative=7L58B9086saOW4zCCye5mg&utm_campaign=yelp_api_v3&utm_medium=api_v3_business_search&utm_source=7L58B9086saOW4zCCye5mg
Courtyard New York Manhattan/Midtown East,B4Dr55Zn6ZggrCK5an6AHg,La Co Ce,0.0,,"['mexican', 'latin']",40.75808,-73.97001,69.62000646687476,https://www.yelp.com/biz/la-co-ce-new-york?adjust_creative=7L58B9086saOW4zCCye5mg&utm_campaign=yelp_api_v3&utm_medium=api_v3_business_search&utm_source=7L58B9086saOW4zCCye5mg
Courtyard New York Manhattan/Midtown East,hyNYHig0zs4cku1vgVE7Jw,Pesce lulu Seafood Kitchen,4.3,,"['seafood', 'mediterranean', 'tacos']",40.75808,-73.97001,69.62000646687476,https://www.yelp.com/biz/pesce-lulu-seafood-kitchen-new-york?adjust_creative=7L58B9086saOW4zCCye5mg&utm_campaign=yelp_api_v3&utm_medium=api_v3_business_search&utm_source=7L58B9086saOW4zCCye5mg
Courtyard New York Manhattan/Midtown East,MLBqYHtCwACXgmKxYTFq3g,KazuNori | Midtown East,4.6,,"['sushi', 'japanese']",40.7580782,-73.96999889026759,69.60448255296109,https://www.yelp.com/biz/kazunori-midtown-east-new-york-2?adjust_creative=7L58B9086saOW4zCCye5mg&utm_campaign=yelp_api_v3&utm_medium=api_v3_business_search&utm_source=7L58B9086saOW4zCCye5mg
Courtyard New York Manhattan/Midtown East,sl0QebEUsgKid-Fo7AlXnA,O Bar,0.0,,"['sushi', 'korean', 'cocktailbars']",40.75808,-73.97001,69.62000646687476,https://www.yelp.com/biz/o-bar-new-york-2?adjust_creative=7L58B9086saOW4zCCye5mg&utm_campaign=yelp_api_v3&utm_medium=api_v3_business_search&utm_source=7L58B9086saOW4zCCye5mg
Courtyard New York Manhattan/Midtown East,dv1U3dyNmCEa6dDC317-1g,King Tut Pita Pack,3.8,,['halal'],40.7578583,-73.9707413,71.06326396597525,https://www.yelp.com/biz/king-tut-pita-pack-manhattan?adjust_creative=7L58B9086saOW4zCCye5mg&utm_campaign=yelp_api_v3&utm_medium=api_v3_business_search&utm_source=7L58B9086saOW4zCCye5mg
Courtyard New York Manhattan/Midtown East,CtVc-dAD0kK62DHJUMgOlw,Dig Inn,3.8,$$,"['newamerican', 'salad', 'hotdogs']",40.75722888757653,-73.97072053336949,71.63114488318082,https://www.yelp.com/biz/dig-inn-new-york-75?adjust_creative=7L58B9086saOW4zCCye5mg&utm_campaign=yelp_api_v3&utm_medium=api_v3_business_search&utm_source=7L58B9086saOW4zCCye5mg
Courtyard New York Manhattan/Midtown East,esQsaUN5Zc4gwmOmFsfitQ,F & B Gudtfood Restaurant,0.0,,['restaurants'],40.75732,-73.97069,76.8523921295456,https://www.yelp.com/biz/f-and-b-gudtfood-restaurant-new-york?adjust_creative=7L58B9086saOW4zCCye5mg&utm_campaign=yelp_api_v3&utm_medium=api_v3_business_search&utm_source=7L58B9086saOW4zCCye5mg
Courtyard New York Manhattan/Midtown East,ZIOyJKev3G1eZH_ufaf_tw,Fourth Wall Resturants,0.0,,['newamerican'],40.757954,-73.969508,79.76459565516474,https://www.yelp.com/biz/fourth-wall-resturants-new-york?adjust_creative=7L58B9086saOW4zCCye5mg&utm_campaign=yelp_api_v3&utm_medium=api_v3_business_search&utm_source=7L58B9086saOW4zCCye5mg
Courtyard New York Manhattan/Midtown East,-mEDJYgrnRSitBRv9u6LMw,The Hugh,4.3,$$,['food_court'],40.758176,-73.9702094,83.71662144939266,https://www.yelp.com/biz/the-hugh-new-york?adjust_creative=7L58B9086saOW4zCCye5mg&utm_campaign=yelp_api_v3&utm_medium=api_v3_business_search&utm_source=7L58B9086saOW4zCCye5mg
Courtyard New York Manhattan/Midtown East,YGsKGkjpc3LdH-UBTFNCMQ,BK JANI,4.3,,"['halal', 'pakistani', 'burgers']",40.75818411519471,-73.97021278122322,84.6627633265751,https://www.yelp.com/biz/bk-jani-new-york?adjust_creative=7L58B9086saOW4zCCye5mg&utm_campaign=yelp_api_v3&utm_medium=api_v3_business_search&utm_source=7L58B9086saOW4zCCye5mg
Courtyard New York Manhattan/Midtown East,tFu5EO6WMWRCXeaS34Gr1A,Pret A Manger,3.2,$,"['sandwiches', 'coffee', 'breakfast_brunch']",40.75811065949706,-73.969392,85.59858851973861,https://www.yelp.com/biz/pret-a-manger-new-york-30?adjust_creative=7L58B9086saOW4zCCye5mg&utm_campaign=yelp_api_v3&utm_medium=api_v3_business_search&utm_source=7L58B9086saOW4zCCye5mg
Courtyard New York Manhattan/Midtown East,vpQuweZbx__MNXqVa9pt8Q,Chipotle Mexican Grill,3.3,$,"['hotdogs', 'mexican']",40.757417,-73.9709456,86.14137318850925,https://www.yelp.com/biz/chipotle-mexican-grill-new-york-68?adjust_creative=7L58B9086saOW4zCCye5mg&utm_campaign=yelp_api_v3&utm_medium=api_v3_business_search&utm_source=7L58B9086saOW4zCCye5mg
Courtyard New York Manhattan/Midtown East,9WQbGNhEj9RxgVFYhR6NOQ,Miznon,3.6,,"['sandwiches', 'mediterranean', 'bars']",40.758266685730895,-73.97001336653737,90.59002661729177,https://www.yelp.com/biz/miznon-new-york-8?adjust_creative=7L58B9086saOW4zCCye5mg&utm_campaign=yelp_api_v3&utm_medium=api_v3_business_search&utm_source=7L58B9086saOW4zCCye5mg
Courtyard New York Manhattan/Midtown East,nrWmnm_R1E43_jUC5K5aIg,52nd and Lexington Breakfast Cart,5.0,$,"['coffee', 'breakfast_brunch']",40.757865,-73.970748,95.26220624416715,https://www.yelp.com/biz/52nd-and-lexington-breakfast-cart-new-york?adjust_creative=7L58B9086saOW4zCCye5mg&utm_campaign=yelp_api_v3&utm_medium=api_v3_business_search&utm_source=7L58B9086saOW4zCCye5mg
Courtyard New York Manhattan/Midtown East,cPnWkCCctE-0yTdPnjtl7Q,sweetgreen,2.4,,['salad'],40.75796,-73.97084,95.4300522068415,https://www.yelp.com/biz/sweetgreen-new-york-53?adjust_creative=7L58B9086saOW4zCCye5mg&utm_campaign=yelp_api_v3&utm_medium=api_v3_business_search&utm_source=7L58B9086saOW4zCCye5mg
Courtyard New York Manhattan/Midtown East,E-Xw-d5U7pB_EPR99m7fNg,Café Joyeux,4.7,,"['coffee', 'breakfast_brunch', 'cafes']",40.7575792,-73.971045,95.41886785521666,https://www.yelp.com/biz/caf%C3%A9-joyeux-new-york?adjust_creative=7L58B9086saOW4zCCye5mg&utm_campaign=yelp_api_v3&utm_medium=api_v3_business_search&utm_source=7L58B9086saOW4zCCye5mg
Courtyard New York Manhattan/Midtown East,Up2auWodO0ygQRl69oeHdA,The Murder Mystery,0.0,,"['dinnertheater', 'eventplanning']",40.756693,-73.969455,100.14387748375316,https://www.yelp.com/biz/the-murder-mystery-new-york?adjust_creative=7L58B9086saOW4zCCye5mg&utm_campaign=yelp_api_v3&utm_medium=api_v3_business_search&utm_source=7L58B9086saOW4zCCye5mg
Courtyard New York Manhattan/Midtown East,hGWmAkc6mWSYkDzbc878pw,Amazon Go,3.8,$$,"['convenience', 'salad', 'sandwiches']",40.75808,-73.97079,100.75736526172032,https://www.yelp.com/biz/amazon-go-new-york-32?adjust_creative=7L58B9086saOW4zCCye5mg&utm_campaign=yelp_api_v3&utm_medium=api_v3_business_search&utm_source=7L58B9086saOW4zCCye5mg
Courtyard New York Manhattan/Midtown East,asD0l4yMxJY4UoQCwF0RDA,Teranga Midtown,4.5,$$,['african'],40.75878,-73.97048,100.99660228008817,https://www.yelp.com/biz/teranga-midtown-new-york-4?adjust_creative=7L58B9086saOW4zCCye5mg&utm_campaign=yelp_api_v3&utm_medium=api_v3_business_search&utm_source=7L58B9086saOW4zCCye5mg
Courtyard New York Manhattan/Midtown East,h3kZr9KVuzB9JKJCkWZjGw,The Garden Grill,3.2,,['newamerican'],40.756649,-73.9694366,101.0855346378838,https://www.yelp.com/biz/the-garden-grill-new-york?adjust_creative=7L58B9086saOW4zCCye5mg&utm_campaign=yelp_api_v3&utm_medium=api_v3_business_search&utm_source=7L58B9086saOW4zCCye5mg
New York Marriott Downtown,fvYQeoC42TkIyPTSVEQWvw,Bill's Bar & Burger Downtown,3.6,$$,"['bars', 'burgers']",40.70936301095898,-74.0141804516316,39.632977074265504,https://www.yelp.com/biz/bills-bar-and-burger-downtown-new-york?adjust_creative=7L58B9086saOW4zCCye5mg&utm_campaign=yelp_api_v3&utm_medium=api_v3_business_search&utm_source=7L58B9086saOW4zCCye5mg
New York Marriott Downtown,suEoAFFWEj-RA3smDVqDbA,Morton's The Steakhouse,3.9,$$$$,"['steak', 'tradamerican', 'bars']",40.709724,-74.0139538049698,59.305322948295874,https://www.yelp.com/biz/mortons-the-steakhouse-new-york-9?adjust_creative=7L58B9086saOW4zCCye5mg&utm_campaign=yelp_api_v3&utm_medium=api_v3_business_search&utm_source=7L58B9086saOW4zCCye5mg
New York Marriott Downtown,hJiVUJ_qYoCM8ITnaDxoQg,One40 Rooftop,4.0,,"['breakfast_brunch', 'salad', 'cocktailbars']",40.7098277,-74.01392608404129,66.61317383987465,https://www.yelp.com/biz/one40-rooftop-new-york?adjust_creative=7L58B9086saOW4zCCye5mg&utm_campaign=yelp_api_v3&utm_medium=api_v3_business_search&utm_source=7L58B9086saOW4zCCye5mg
New York Marriott Downtown,XXHR59YE3PsMJKhaSGF82g,Skinos,3.8,,"['greek', 'lounges', 'mediterranean']",40.7092191,-74.0137534,79.01368367724143,https://www.yelp.com/biz/skinos-new-york?adjust_creative=7L58B9086saOW4zCCye5mg&utm_campaign=yelp_api_v3&utm_medium=api_v3_business_search&utm_source=7L58B9086saOW4zCCye5mg
New York Marriott Downtown,ZgyvDF_hOWas3SXe0Hj7hA,Schilling Restaurant & Bar,4.2,$$,"['austrian', 'bars', 'newamerican']",40.70876746027962,-74.01401660338927,97.0934911376116,https://www.yelp.com/biz/schilling-restaurant-and-bar-new-york?adjust_creative=7L58B9086saOW4zCCye5mg&utm_campaign=yelp_api_v3&utm_medium=api_v3_business_search&utm_source=7L58B9086saOW4zCCye5mg
New York Marriott Downtown,uSA8YIZaI-2ikkkLzLdwIA,Yeh’s Bao,4.3,,"['fooddeliveryservices', 'salad', 'noodles']",40.708411454439194,-74.0146604,123.23620996289328,https://www.yelp.com/biz/yeh-s-bao-new-york?adjust_creative=7L58B9086saOW4zCCye5mg&utm_campaign=yelp_api_v3&utm_medium=api_v3_business_search&utm_source=7L58B9086saOW4zCCye5mg
New York Marriott Downtown,N7Bkw3IKn-QuK3ELzLj1Mw,Flavor Taste,0.0,,"['desserts', 'wraps', 'sandwiches']",40.708605,-74.013606,130.93516864568127,https://www.yelp.com/biz/flavor-taste-new-york-4?adjust_creative=7L58B9086saOW4zCCye5mg&utm_campaign=yelp_api_v3&utm_medium=api_v3_business_search&utm_source=7L58B9086saOW4zCCye5mg
New York Marriott Downtown,k8GFfCXO2FIIJIo0ICYSRA,Bao Bao Cafe,4.2,$$,"['noodles', 'chinese']",40.7085,-74.0134999,146.70593690158407,https://www.yelp.com/biz/bao-bao-cafe-new-york-3?adjust_creative=7L58B9086saOW4zCCye5mg&utm_campaign=yelp_api_v3&utm_medium=api_v3_business_search&utm_source=7L58B9086saOW4zCCye5mg
New York Marriott Downtown,i6vJ0FpWO2lLry9gL9sNLQ,ZAZA,4.3,$$,"['diners', 'breakfast_brunch', 'sandwiches']",40.708480104609066,-74.01352500331909,146.9796488062063,https://www.yelp.com/biz/zaza-new-york-2?adjust_creative=7L58B9086saOW4zCCye5mg&utm_campaign=yelp_api_v3&utm_medium=api_v3_business_search&utm_source=7L58B9086saOW4zCCye5mg
New York Marriott Downtown,x-T3WaLPnbVrxc-ruzFhyQ,Mughlai Indian Cuisine,4.4,$$,['indpak'],40.70953534633694,-74.01278923745791,152.91561925205457,https://www.yelp.com/biz/mughlai-indian-cuisine-new-york-9?adjust_creative=7L58B9086saOW4zCCye5mg&utm_campaign=yelp_api_v3&utm_medium=api_v3_business_search&utm_source=7L58B9086saOW4zCCye5mg
New York Marriott Downtown,YxCLC_Jv5svNgfJdwu9rJg,Cafe De Novo,2.9,$$,"['korean', 'pizza', 'breakfast_brunch']",40.7081208335465,-74.0138110214958,169.1944650353314,https://www.yelp.com/biz/cafe-de-novo-new-york-3?adjust_creative=7L58B9086saOW4zCCye5mg&utm_campaign=yelp_api_v3&utm_medium=api_v3_business_search&utm_source=7L58B9086saOW4zCCye5mg
New York Marriott Downtown,nm5rcWNmfevNXLNQAITi5w,Clinton Hall - FiDi,3.7,$$,"['bars', 'beergardens', 'tradamerican']",40.708031,-74.01498,170.20094615838488,https://www.yelp.com/biz/clinton-hall-fidi-new-york?adjust_creative=7L58B9086saOW4zCCye5mg&utm_campaign=yelp_api_v3&utm_medium=api_v3_business_search&utm_source=7L58B9086saOW4zCCye5mg
New York Marriott Downtown,2ZDK6Zak3pf5lTR9ZXz5LA,Regular NYC,4.8,$$,"['breakfast_brunch', 'coffee', 'bagels']",40.70801,-74.013984,170.44798484442092,https://www.yelp.com/biz/regular-nyc-new-york-5?adjust_creative=7L58B9086saOW4zCCye5mg&utm_campaign=yelp_api_v3&utm_medium=api_v3_business_search&utm_source=7L58B9086saOW4zCCye5mg
New York Marriott Downtown,j9tAoiEsgSS85QV04pY3lQ,Kimchi Taco,3.2,$,"['korean', 'foodtrucks', 'mexican']",40.7112121582031,-74.0148391723633,175.64240818688822,https://www.yelp.com/biz/kimchi-taco-new-york-2?adjust_creative=7L58B9086saOW4zCCye5mg&utm_campaign=yelp_api_v3&utm_medium=api_v3_business_search&utm_source=7L58B9086saOW4zCCye5mg
New York Marriott Downtown,pfccCt5bZaGv8U1J8oFNjQ,Siena Pizza & Cannoli,4.3,$$,"['pizza', 'desserts']",40.708152,-74.013864,177.67108086586995,https://www.yelp.com/biz/siena-pizza-and-cannoli-new-york-2?adjust_creative=7L58B9086saOW4zCCye5mg&utm_campaign=yelp_api_v3&utm_medium=api_v3_business_search&utm_source=7L58B9086saOW4zCCye5mg
New York Marriott Downtown,r3sTzwMyWfqc8q_M7eT0og,Greenwich and Delancey,4.7,,"['kosher', 'soup', 'sandwiches']",40.707767,-74.014983,186.12873865403654,https://www.yelp.com/biz/greenwich-and-delancey-new-york?adjust_creative=7L58B9086saOW4zCCye5mg&utm_campaign=yelp_api_v3&utm_medium=api_v3_business_search&utm_source=7L58B9086saOW4zCCye5mg
New York Marriott Downtown,oBAxfAeF6OBukPg3WLmiRg,Treadwell Park,4.0,$$,"['beerbar', 'tradamerican', 'tapasmallplates']",40.71031141285253,-74.01658239999999,188.66050987111706,https://www.yelp.com/biz/treadwell-park-new-york-3?adjust_creative=7L58B9086saOW4zCCye5mg&utm_campaign=yelp_api_v3&utm_medium=api_v3_business_search&utm_source=7L58B9086saOW4zCCye5mg
New York Marriott Downtown,0oRYwB_SLqjHptvUQwwe2w,Tajin,3.6,$$,"['mexican', 'breakfast_brunch', 'tex-mex']",40.707905071154805,-74.01362173954276,197.60367411232755,https://www.yelp.com/biz/tajin-new-york?adjust_creative=7L58B9086saOW4zCCye5mg&utm_campaign=yelp_api_v3&utm_medium=api_v3_business_search&utm_source=7L58B9086saOW4zCCye5mg
New York Marriott Downtown,nMLVyAATKXWEez1Fy1Ls9A,Riverside Market,3.3,,"['delis', 'grocery', 'convenience']",40.71004,-74.01671,197.87033188028565,https://www.yelp.com/biz/riverside-market-new-york-3?adjust_creative=7L58B9086saOW4zCCye5mg&utm_campaign=yelp_api_v3&utm_medium=api_v3_business_search&utm_source=7L58B9086saOW4zCCye5mg
New York Marriott Downtown,nsPDmDEn539AqQZpj2KrsA,Chipotle Mexican Grill,2.3,$,"['mexican', 'hotdogs']",40.7107027115765,-74.0163696314733,198.72781058465978,https://www.yelp.com/biz/chipotle-mexican-grill-new-york-73?adjust_creative=7L58B9086saOW4zCCye5mg&utm_campaign=yelp_api_v3&utm_medium=api_v3_business_search&utm_source=7L58B9086saOW4zCCye5mg
New York Marriott Downtown,ZnhRUBos9FGQZrzbcPn6Vg,O'Hara's Restaurant and Pub,4.1,$$,"['irish_pubs', 'sportsbars', 'tradamerican']",40.7093473589949,-74.0122557367896,198.79019565781644,https://www.yelp.com/biz/o-haras-restaurant-and-pub-new-york?adjust_creative=7L58B9086saOW4zCCye5mg&utm_campaign=yelp_api_v3&utm_medium=api_v3_business_search&utm_source=7L58B9086saOW4zCCye5mg
New York Marriott Downtown,LMuEESylhcBthCa9XBmIzw,Pronto Pizza,2.9,$,['pizza'],40.70971684475851,-74.01225057328158,199.5253750910063,https://www.yelp.com/biz/pronto-pizza-new-york-9?adjust_creative=7L58B9086saOW4zCCye5mg&utm_campaign=yelp_api_v3&utm_medium=api_v3_business_search&utm_source=7L58B9086saOW4zCCye5mg
New York Marriott Downtown,aS96CjGeSWXjKEAENvW68w,Hot Dog Cart At South End Ave,4.2,$,"['foodstands', 'hotdog']",40.7109314570261,-74.0161190947942,202.46975529004644,https://www.yelp.com/biz/hot-dog-cart-at-south-end-ave-new-york?adjust_creative=7L58B9086saOW4zCCye5mg&utm_campaign=yelp_api_v3&utm_medium=api_v3_business_search&utm_source=7L58B9086saOW4zCCye5mg
New York Marriott Downtown,8sEsztmhQe1KuMt32hvKcg,George's,3.5,$$,"['tradamerican', 'breakfast_brunch']",40.7077437,-74.0134874,212.58455012423155,https://www.yelp.com/biz/georges-new-york-63?adjust_creative=7L58B9086saOW4zCCye5mg&utm_campaign=yelp_api_v3&utm_medium=api_v3_business_search&utm_source=7L58B9086saOW4zCCye5mg
New York Marriott Downtown,IYvPD-y7MmOclVl0ro_I7w,The Little Rey Kitchen,0.0,,"['tacos', 'salad', 'breakfast_brunch']",40.70944,-74.01209,212.69603301003917,https://www.yelp.com/biz/the-little-rey-kitchen-new-york?adjust_creative=7L58B9086saOW4zCCye5mg&utm_campaign=yelp_api_v3&utm_medium=api_v3_business_search&utm_source=7L58B9086saOW4zCCye5mg
New York Marriott Downtown,9osfnHyGaOCfC476XyGPlQ,Shake Shack,4.0,,['burgers'],40.71048753240868,-74.01240179999999,214.55360341626394,https://www.yelp.com/biz/shake-shack-queens-10?adjust_creative=7L58B9086saOW4zCCye5mg&utm_campaign=yelp_api_v3&utm_medium=api_v3_business_search&utm_source=7L58B9086saOW4zCCye5mg
New York Marriott Downtown,kgvMqeMTgPz4ZGz7oj6cFg,Lazzaro Bagels,3.9,,"['pizza', 'sandwiches', 'breakfast_brunch']",40.70948,-74.012,215.9953696158743,https://www.yelp.com/biz/lazzaro-new-york?adjust_creative=7L58B9086saOW4zCCye5mg&utm_campaign=yelp_api_v3&utm_medium=api_v3_business_search&utm_source=7L58B9086saOW4zCCye5mg
New York Marriott Downtown,nZlX7OWns9206Wb8SrQxgQ,Hank's Pizza,3.7,,['pizza'],40.70944841158949,-74.01202664424883,217.3240803688637,https://www.yelp.com/biz/hanks-pizza-new-york-2?adjust_creative=7L58B9086saOW4zCCye5mg&utm_campaign=yelp_api_v3&utm_medium=api_v3_business_search&utm_source=7L58B9086saOW4zCCye5mg
New York Marriott Downtown,MZvOl00X6fVGJZYa2TkHeg,Burger King,2.3,$,"['hotdogs', 'burgers']",40.70966,-74.011923,223.9432718011117,https://www.yelp.com/biz/burger-king-new-york-59?adjust_creative=7L58B9086saOW4zCCye5mg&utm_campaign=yelp_api_v3&utm_medium=api_v3_business_search&utm_source=7L58B9086saOW4zCCye5mg
New York Marriott Downtown,jpohyJh5H3hzK2H96mE18w,Half Moon,3.9,,"['breakfast_brunch', 'cocktailbars', 'sandwiches']",40.70769364143345,-74.01333968225683,229.20915656556053,https://www.yelp.com/biz/half-moon-new-york-4?adjust_creative=7L58B9086saOW4zCCye5mg&utm_campaign=yelp_api_v3&utm_medium=api_v3_business_search&utm_source=7L58B9086saOW4zCCye5mg
New York Marriott Downtown,BSdVsGQMCUh9CvpCdTqdwA,Eat Well,2.0,,['salad'],40.710083486128326,-74.0119758,230.19326974363716,https://www.yelp.com/biz/eat-well-new-york?adjust_creative=7L58B9086saOW4zCCye5mg&utm_campaign=yelp_api_v3&utm_medium=api_v3_business_search&utm_source=7L58B9086saOW4zCCye5mg
New York Marriott Downtown,jhs35REmv8Yo9-Z27KQJSA,NAYA,4.3,,"['mediterranean', 'mideastern']",40.71082,-74.01555,230.75136681026086,https://www.yelp.com/biz/naya-new-york-63?adjust_creative=7L58B9086saOW4zCCye5mg&utm_campaign=yelp_api_v3&utm_medium=api_v3_business_search&utm_source=7L58B9086saOW4zCCye5mg
New York Marriott Downtown,WZLhPYaYSFy7M_-Jh1VuNw,Dos Toros Taqueria,3.5,$$,['mexican'],40.71082,-74.01555,230.75136681026086,https://www.yelp.com/biz/dos-toros-taqueria-new-york-5?adjust_creative=7L58B9086saOW4zCCye5mg&utm_campaign=yelp_api_v3&utm_medium=api_v3_business_search&utm_source=7L58B9086saOW4zCCye5mg
New York Marriott Downtown,3Y6MywtWhTvxreyNyk6LZg,Sam's Crispy Chicken - Brookfield,2.6,,"['chickenshop', 'hotdogs']",40.71082,-74.01555,230.75136681026086,https://www.yelp.com/biz/sams-crispy-chicken-brookfield-new-york?adjust_creative=7L58B9086saOW4zCCye5mg&utm_campaign=yelp_api_v3&utm_medium=api_v3_business_search&utm_source=7L58B9086saOW4zCCye5mg
New York Marriott Downtown,iuQz7y-mv32U4ZA56gvtHw,Milu,3.7,,"['chinese', 'coffee', 'salad']",40.71156,-74.01533,230.75136681026086,https://www.yelp.com/biz/milu-new-york-5?adjust_creative=7L58B9086saOW4zCCye5mg&utm_campaign=yelp_api_v3&utm_medium=api_v3_business_search&utm_source=7L58B9086saOW4zCCye5mg
New York Marriott Downtown,iEUexZwvyWrwmFfM6cxAAA,Carrot Express,4.0,,"['salad', 'breakfast_brunch', 'acaibowls']",40.71154,-74.01525,231.2517514920821,https://www.yelp.com/biz/carrot-express-new-york-11?adjust_creative=7L58B9086saOW4zCCye5mg&utm_campaign=yelp_api_v3&utm_medium=api_v3_business_search&utm_source=7L58B9086saOW4zCCye5mg
New York Marriott Downtown,Ua-iiqaQqHiQ_-_hd0nufA,Cibo Express Gourmet Market,3.0,,['food_court'],40.710426,-74.012222,234.1894579277172,https://www.yelp.com/biz/cibo-express-gourmet-market-new-york?adjust_creative=7L58B9086saOW4zCCye5mg&utm_campaign=yelp_api_v3&utm_medium=api_v3_business_search&utm_source=7L58B9086saOW4zCCye5mg
New York Marriott Downtown,B8yFj4qt-HgMCbF5S-GkgA,Creperie,2.6,$,['creperies'],40.711547382455,-74.0153995156288,235.32890406806288,https://www.yelp.com/biz/creperie-new-york-6?adjust_creative=7L58B9086saOW4zCCye5mg&utm_campaign=yelp_api_v3&utm_medium=api_v3_business_search&utm_source=7L58B9086saOW4zCCye5mg
New York Marriott Downtown,LvcvCQUYuZttX0e7wiICVA,America's Finest Deli,3.5,$,"['delis', 'breakfast_brunch', 'wraps']",40.7076443871245,-74.0132297894571,238.43018870620776,https://www.yelp.com/biz/americas-finest-deli-new-york?adjust_creative=7L58B9086saOW4zCCye5mg&utm_campaign=yelp_api_v3&utm_medium=api_v3_business_search&utm_source=7L58B9086saOW4zCCye5mg
New York Marriott Downtown,ce605OMECZ3jLZtk6dCDHA,Le Pain Quotidien,3.2,$$,"['coffee', 'bakeries', 'breakfast_brunch']",40.7112998613948,-74.0161925656414,239.084290188888,https://www.yelp.com/biz/le-pain-quotidien-new-york-137?adjust_creative=7L58B9086saOW4zCCye5mg&utm_campaign=yelp_api_v3&utm_medium=api_v3_business_search&utm_source=7L58B9086saOW4zCCye5mg
New York Marriott Downtown,5X1DHD3qU8sNFpRwSpYrAw,House Of Pita,0.0,,['sandwiches'],40.7164074,-73.9833044,239.26883490258297,https://www.yelp.com/biz/house-of-pita-new-york-4?adjust_creative=7L58B9086saOW4zCCye5mg&utm_campaign=yelp_api_v3&utm_medium=api_v3_business_search&utm_source=7L58B9086saOW4zCCye5mg
New York Marriott Downtown,TVMUJd4aLiyJe84xejkhhw,The Brunch Scene,0.0,,['breakfast_brunch'],40.70736,-74.0122,239.7935169670599,https://www.yelp.com/biz/the-brunch-scene-new-york?adjust_creative=7L58B9086saOW4zCCye5mg&utm_campaign=yelp_api_v3&utm_medium=api_v3_business_search&utm_source=7L58B9086saOW4zCCye5mg
New York Marriott Downtown,8dKgnx7EVuVVO6D40LTwjw,Vino E Grano At Eataly Nyc Downtown,3.6,,"['italian', 'wine_bars', 'pizza']",40.710206,-74.011823,242.55638310634535,https://www.yelp.com/biz/vino-e-grano-at-eataly-nyc-downtown-new-york-2?adjust_creative=7L58B9086saOW4zCCye5mg&utm_campaign=yelp_api_v3&utm_medium=api_v3_business_search&utm_source=7L58B9086saOW4zCCye5mg
New York Marriott Downtown,xb844Dw_PuTVxKtCkUCY9Q,Bar Fiorentino at Eataly NYC Downtown,4.3,,"['desserts', 'fooddeliveryservices', 'italian']",40.710206,-74.011823,242.55638310634535,https://www.yelp.com/biz/bar-fiorentino-at-eataly-nyc-downtown-new-york?adjust_creative=7L58B9086saOW4zCCye5mg&utm_campaign=yelp_api_v3&utm_medium=api_v3_business_search&utm_source=7L58B9086saOW4zCCye5mg
New York Marriott Downtown,m9Ud-Z_3AnRca9gUe95crQ,Gansevoort Liberty Market,4.0,$$,"['food_court', 'publicmarkets']",40.710395,-74.012001,242.55638310634535,https://www.yelp.com/biz/gansevoort-liberty-market-new-york?adjust_creative=7L58B9086saOW4zCCye5mg&utm_campaign=yelp_api_v3&utm_medium=api_v3_business_search&utm_source=7L58B9086saOW4zCCye5mg
New York Marriott Downtown,HEAce8qlh0OOOLNpAcX10A,MOMO CURRY,3.7,,['japacurry'],40.7096522,-74.0112896,242.55638310634535,https://www.yelp.com/biz/momo-curry-new-york?adjust_creative=7L58B9086saOW4zCCye5mg&utm_campaign=yelp_api_v3&utm_medium=api_v3_business_search&utm_source=7L58B9086saOW4zCCye5mg
New York Marriott Downtown,iUlNDgKCLJt7F9y5fw2NYA,Osteria della Pace,3.1,$$$,['italian'],40.7096522,-74.0112896,242.55638310634535,https://www.yelp.com/biz/osteria-della-pace-new-york?adjust_creative=7L58B9086saOW4zCCye5mg&utm_campaign=yelp_api_v3&utm_medium=api_v3_business_search&utm_source=7L58B9086saOW4zCCye5mg
New York Marriott Downtown,jzEaiiRa3497HWdf4QKHIA,La Pizza & La Pasta at Eataly NYC Downtown,3.5,$$,"['pizza', 'pastashops', 'italian']",40.710206,-74.011823,242.55638310634535,https://www.yelp.com/biz/la-pizza-and-la-pasta-at-eataly-nyc-downtown-new-york?adjust_creative=7L58B9086saOW4zCCye5mg&utm_campaign=yelp_api_v3&utm_medium=api_v3_business_search&utm_source=7L58B9086saOW4zCCye5mg
New York Marriott Downtown,8QxF8i__QA5AhWnUF9wV2A,Cebichelsea,3.8,,['peruvian'],40.7096522,-74.0112896,242.55638310634535,https://www.yelp.com/biz/cebichelsea-new-york-2?adjust_creative=7L58B9086saOW4zCCye5mg&utm_campaign=yelp_api_v3&utm_medium=api_v3_business_search&utm_source=7L58B9086saOW4zCCye5mg
New York Marriott Downtown,pL2tig3FxJcrZ4wDIO4TsA,Eataly NYC Downtown,3.7,$$,"['grocery', 'italian', 'cafes']",40.710206,-74.011823,242.55638310634535,https://www.yelp.com/biz/eataly-nyc-downtown-new-york-2?adjust_creative=7L58B9086saOW4zCCye5mg&utm_campaign=yelp_api_v3&utm_medium=api_v3_business_search&utm_source=7L58B9086saOW4zCCye5mg
Moxy NYC Times Square,k2sHdf6WeY22pK3hs6mtqA,Legasea Bar & Grill,3.7,$$$,"['newamerican', 'bars']",40.75246783871857,-73.9893714972742,8.369530311660837,https://www.yelp.com/biz/legasea-bar-and-grill-new-york?adjust_creative=7L58B9086saOW4zCCye5mg&utm_campaign=yelp_api_v3&utm_medium=api_v3_business_search&utm_source=7L58B9086saOW4zCCye5mg
Moxy NYC Times Square,VVYea3NzbklOyHEzSEavWw,7th Street Burger Times Square,4.3,$$,"['burgers', 'beverage_stores']",40.75243161339776,-73.98932513685675,9.247354740681812,https://www.yelp.com/biz/7th-street-burger-times-square-new-york?adjust_creative=7L58B9086saOW4zCCye5mg&utm_campaign=yelp_api_v3&utm_medium=api_v3_business_search&utm_source=7L58B9086saOW4zCCye5mg
Moxy NYC Times Square,iyBcQDFSxDo34jhS_eQpvg,Atrium Cafe,1.0,,['cafes'],40.752281,-73.98912,16.6177929477603,https://www.yelp.com/biz/atrium-cafe-new-york-3?adjust_creative=7L58B9086saOW4zCCye5mg&utm_campaign=yelp_api_v3&utm_medium=api_v3_business_search&utm_source=7L58B9086saOW4zCCye5mg
Moxy NYC Times Square,7BelpLrSPIj7OndEWdqe8w,Moe's Falafel,1.7,,['falafel'],40.7522877,-73.9897059,26.759739642368608,https://www.yelp.com/biz/moes-falafel-new-york?adjust_creative=7L58B9086saOW4zCCye5mg&utm_campaign=yelp_api_v3&utm_medium=api_v3_business_search&utm_source=7L58B9086saOW4zCCye5mg
Moxy NYC Times Square,mJXouPmhHK7gV7AZkQiBdA,Café D'Avignon - The Moxy Times Square,4.4,$$,"['bakeries', 'breakfast_brunch', 'sandwiches']",40.752344,-73.989233,28.017136393988718,https://www.yelp.com/biz/caf%C3%A9-d-avignon-the-moxy-times-square-new-york-5?adjust_creative=7L58B9086saOW4zCCye5mg&utm_campaign=yelp_api_v3&utm_medium=api_v3_business_search&utm_source=7L58B9086saOW4zCCye5mg
Moxy NYC Times Square,qn1-k03c_p3YxMVsWgTg8Q,Papi Pasta and Pizza,3.8,,"['pizza', 'pastashops', 'salad']",40.752273,-73.989128,28.228467699510784,https://www.yelp.com/biz/papi-pasta-and-pizza-new-york?adjust_creative=7L58B9086saOW4zCCye5mg&utm_campaign=yelp_api_v3&utm_medium=api_v3_business_search&utm_source=7L58B9086saOW4zCCye5mg
Moxy NYC Times Square,-Z8AqMMtQfKSXfxySsgkKQ,36th And 7th Halal Cart,4.0,,"['streetvendors', 'halal']",40.7521497101405,-73.9895473385435,30.268533029963184,https://www.yelp.com/biz/36th-and-7th-halal-cart-manhattan?adjust_creative=7L58B9086saOW4zCCye5mg&utm_campaign=yelp_api_v3&utm_medium=api_v3_business_search&utm_source=7L58B9086saOW4zCCye5mg
Moxy NYC Times Square,TNPZJiO57c4uLhNo79bXJg,Macaron Cafe,5.0,,"['cafes', 'macarons']",40.752579,-73.989758,36.05172325941337,https://www.yelp.com/biz/macaron-cafe-new-york-8?adjust_creative=7L58B9086saOW4zCCye5mg&utm_campaign=yelp_api_v3&utm_medium=api_v3_business_search&utm_source=7L58B9086saOW4zCCye5mg
Moxy NYC Times Square,8z027Xo4pJmKg2I98ClT8A,fresh&co,3.5,,"['salad', 'soup', 'sandwiches']",40.7526297,-73.9890956,37.50519806504776,https://www.yelp.com/biz/fresh-and-co-new-york-102?adjust_creative=7L58B9086saOW4zCCye5mg&utm_campaign=yelp_api_v3&utm_medium=api_v3_business_search&utm_source=7L58B9086saOW4zCCye5mg
Moxy NYC Times Square,Cw7AFqulngjtirLYgVJTTQ,Greek From Greece,4.1,$$,"['greek', 'cafes', 'sandwiches']",40.75203149131091,-73.98966817052634,46.324275740256944,https://www.yelp.com/biz/greek-from-greece-new-york-2?adjust_creative=7L58B9086saOW4zCCye5mg&utm_campaign=yelp_api_v3&utm_medium=api_v3_business_search&utm_source=7L58B9086saOW4zCCye5mg
Moxy NYC Times Square,JtCLXOcflOglJb93hckcGQ,GFG Cafe Cuisine,0.0,,"['cafes', 'bakeries', 'greek']",40.7519647263968,-73.98965149034413,52.59863171748298,https://www.yelp.com/biz/gfg-cafe-cuisine-new-york?adjust_creative=7L58B9086saOW4zCCye5mg&utm_campaign=yelp_api_v3&utm_medium=api_v3_business_search&utm_source=7L58B9086saOW4zCCye5mg
Moxy NYC Times Square,mr_8PCcCGs7sy9KIjqRPZA,Healthy Creations Gourmet Deli Pizza,0.0,,['delis'],40.75194,-73.98945,56.32445102504207,https://www.yelp.com/biz/healthy-creations-gourmet-deli-pizza-new-york?adjust_creative=7L58B9086saOW4zCCye5mg&utm_campaign=yelp_api_v3&utm_medium=api_v3_business_search&utm_source=7L58B9086saOW4zCCye5mg
Moxy NYC Times Square,nkT08Tewf6TLaysiuiF8Ow,Pig n Whistle,3.4,$$,"['pubs', 'newamerican', 'sportsbars']",40.7523995,-73.9901114,57.403272719925155,https://www.yelp.com/biz/pig-n-whistle-new-york-11?adjust_creative=7L58B9086saOW4zCCye5mg&utm_campaign=yelp_api_v3&utm_medium=api_v3_business_search&utm_source=7L58B9086saOW4zCCye5mg
Moxy NYC Times Square,i8NvYgvKTcckH5r87e_BxA,Just Salad,3.9,,"['salad', 'wraps']",40.75179,-73.98983,59.602556905704155,https://www.yelp.com/biz/just-salad-new-york-68?adjust_creative=7L58B9086saOW4zCCye5mg&utm_campaign=yelp_api_v3&utm_medium=api_v3_business_search&utm_source=7L58B9086saOW4zCCye5mg
Moxy NYC Times Square,AY57K9NKAOYR_XcZJsNWDA,Sopo,4.2,,"['korean', 'comfortfood', 'bbq']",40.75179,-73.98983,59.602556905704155,https://www.yelp.com/biz/sopo-new-york-3?adjust_creative=7L58B9086saOW4zCCye5mg&utm_campaign=yelp_api_v3&utm_medium=api_v3_business_search&utm_source=7L58B9086saOW4zCCye5mg
Moxy NYC Times Square,51YLgpfHKfXxOkDFe9sT-w,Balade - Your Way,4.4,$$,"['lebanese', 'mediterranean', 'halal']",40.75242,-73.988712,60.12394931073873,https://www.yelp.com/biz/balade-your-way-new-york-2?adjust_creative=7L58B9086saOW4zCCye5mg&utm_campaign=yelp_api_v3&utm_medium=api_v3_business_search&utm_source=7L58B9086saOW4zCCye5mg
Moxy NYC Times Square,shwaY4v3fx9tjalvHVIBxQ,Tengri Tagh Uyghur Cuisine,4.5,,"['chinese', 'halal', 'noodles']",40.75246221952214,-73.98871967056284,60.148257908107276,https://www.yelp.com/biz/tengri-tagh-uyghur-cuisine-new-york?adjust_creative=7L58B9086saOW4zCCye5mg&utm_campaign=yelp_api_v3&utm_medium=api_v3_business_search&utm_source=7L58B9086saOW4zCCye5mg
Moxy NYC Times Square,mESab-FqL5QqSVsnX72asQ,Zen Ramen & Sushi,4.5,$$,"['sushi', 'ramen', 'salad']",40.75177475474212,-73.98897630211589,80.01856471416083,https://www.yelp.com/biz/zen-ramen-and-sushi-new-york?adjust_creative=7L58B9086saOW4zCCye5mg&utm_campaign=yelp_api_v3&utm_medium=api_v3_business_search&utm_source=7L58B9086saOW4zCCye5mg
Moxy NYC Times Square,KxyH5zvTyXawl17lHjA4SQ,Beyond Sushi,4.5,$$,"['vegan', 'sushi', 'desserts']",40.752480219194666,-73.98848260324495,80.21743309558619,https://www.yelp.com/biz/beyond-sushi-new-york-5?adjust_creative=7L58B9086saOW4zCCye5mg&utm_campaign=yelp_api_v3&utm_medium=api_v3_business_search&utm_source=7L58B9086saOW4zCCye5mg
Moxy NYC Times Square,WXNH5L0R3GtVswbDO1nzFQ,Potbelly,3.6,$$,"['sandwiches', 'hotdogs', 'salad']",40.75296,-73.98881,80.67565468793985,https://www.yelp.com/biz/potbelly-sandwich-shop-new-york-5?adjust_creative=7L58B9086saOW4zCCye5mg&utm_campaign=yelp_api_v3&utm_medium=api_v3_business_search&utm_source=7L58B9086saOW4zCCye5mg
Moxy NYC Times Square,C27oXFpDSMuzhHn-J6TIKw,Molly's Cafe,0.0,,['delis'],40.75174,-73.98899,80.82867990886497,https://www.yelp.com/biz/mollys-cafe-new-york?adjust_creative=7L58B9086saOW4zCCye5mg&utm_campaign=yelp_api_v3&utm_medium=api_v3_business_search&utm_source=7L58B9086saOW4zCCye5mg
Moxy NYC Times Square,e2RkfByUUvVN1kRMubI_Dw,Hello Molly's Deli,0.0,,['delis'],40.75174,-73.98899,80.82867990886497,https://www.yelp.com/biz/hello-mollys-deli-new-york?adjust_creative=7L58B9086saOW4zCCye5mg&utm_campaign=yelp_api_v3&utm_medium=api_v3_business_search&utm_source=7L58B9086saOW4zCCye5mg
Moxy NYC Times Square,9M28ab3Lmc5kAJljpMaJZw,Sabinas Pizza Incorporated,0.0,,['pizza'],40.75174,-73.98899,80.82867990886497,https://www.yelp.com/biz/sabinas-pizza-incorporated-new-york?adjust_creative=7L58B9086saOW4zCCye5mg&utm_campaign=yelp_api_v3&utm_medium=api_v3_business_search&utm_source=7L58B9086saOW4zCCye5mg
Moxy NYC Times Square,tEaXg87UzvffVEa7_phIVQ,Dig,0.0,,['newamerican'],40.75173297542143,-73.9898019,81.23164543467651,https://www.yelp.com/biz/dig-new-york-35?adjust_creative=7L58B9086saOW4zCCye5mg&utm_campaign=yelp_api_v3&utm_medium=api_v3_business_search&utm_source=7L58B9086saOW4zCCye5mg
Moxy NYC Times Square,KT6Y8ObZL2o258oCV7M8rA,49th and 7th Halal Cart,3.4,$,['foodstands'],40.76044,-73.98368,82.3103523005855,https://www.yelp.com/biz/49th-and-7th-halal-cart-new-york?adjust_creative=7L58B9086saOW4zCCye5mg&utm_campaign=yelp_api_v3&utm_medium=api_v3_business_search&utm_source=7L58B9086saOW4zCCye5mg
Moxy NYC Times Square,qs1aolxd2bPxv2aGoUtIPg,Andrews Nyc Diner,3.4,$$,"['tradamerican', 'breakfast_brunch', 'cafes']",40.75172241594587,-73.98980419999879,82.39015023403122,https://www.yelp.com/biz/andrews-nyc-diner-new-york-2?adjust_creative=7L58B9086saOW4zCCye5mg&utm_campaign=yelp_api_v3&utm_medium=api_v3_business_search&utm_source=7L58B9086saOW4zCCye5mg
Moxy NYC Times Square,P2tcDK05Q1zKnroLNOlwZw,Wendy’s,3.0,,"['hotdogs', 'burgers']",40.75189795544827,-73.99019448222657,85.73642357321651,https://www.yelp.com/biz/wendy-s-new-york-7?adjust_creative=7L58B9086saOW4zCCye5mg&utm_campaign=yelp_api_v3&utm_medium=api_v3_business_search&utm_source=7L58B9086saOW4zCCye5mg
Moxy NYC Times Square,83h94XD0V03i1r4PmPUbnw,Shart Development,4.5,,['food_court'],40.75302,-73.98893,91.77760224585792,https://www.yelp.com/biz/shart-development-new-york?adjust_creative=7L58B9086saOW4zCCye5mg&utm_campaign=yelp_api_v3&utm_medium=api_v3_business_search&utm_source=7L58B9086saOW4zCCye5mg
Moxy NYC Times Square,u5N7a2wbepqX2PHSKvqcqA,Zaro's Family Bakery,5.0,,"['bakeries', 'cafes']",40.75302,-73.98893,91.77760224585792,https://www.yelp.com/biz/zaros-family-bakery-new-york-11?adjust_creative=7L58B9086saOW4zCCye5mg&utm_campaign=yelp_api_v3&utm_medium=api_v3_business_search&utm_source=7L58B9086saOW4zCCye5mg
Moxy NYC Times Square,PUyiI-QMaGYKSJ5kY7MgkQ,Body Language,0.0,,['restaurants'],40.75312,-73.99,94.61574718275985,https://www.yelp.com/biz/body-language-new-york?adjust_creative=7L58B9086saOW4zCCye5mg&utm_campaign=yelp_api_v3&utm_medium=api_v3_business_search&utm_source=7L58B9086saOW4zCCye5mg
Moxy NYC Times Square,njpz2-Vd-EnoFu5YiIBTVA,DK Restaurant,3.5,$$$,"['steak', 'seafood', 'cocktailbars']",40.75269700681518,-73.99050280328898,95.94791638182473,https://www.yelp.com/biz/dk-restaurant-new-york-2?adjust_creative=7L58B9086saOW4zCCye5mg&utm_campaign=yelp_api_v3&utm_medium=api_v3_business_search&utm_source=7L58B9086saOW4zCCye5mg
Moxy NYC Times Square,D1zMdl-vHRZHQctWeq3brQ,Chipotle Mexican Grill,2.7,$,"['mexican', 'hotdogs']",40.7531443479043,-73.9888011980062,97.60980345115252,https://www.yelp.com/biz/chipotle-mexican-grill-new-york-58?adjust_creative=7L58B9086saOW4zCCye5mg&utm_campaign=yelp_api_v3&utm_medium=api_v3_business_search&utm_source=7L58B9086saOW4zCCye5mg
Moxy NYC Times Square,87C1A7TyutLNCZxBPCdWsQ,Cafe Hestia,2.8,$$,"['cafes', 'salad', 'korean']",40.753127852035,-73.988746209787,98.7035001599722,https://www.yelp.com/biz/cafe-hestia-new-york-3?adjust_creative=7L58B9086saOW4zCCye5mg&utm_campaign=yelp_api_v3&utm_medium=api_v3_business_search&utm_source=7L58B9086saOW4zCCye5mg
Moxy NYC Times Square,BBFgsOPeOwCVrvfjrE9F_Q,Village Square Pizza - Midtown,4.3,,['pizza'],40.75147835422662,-73.98907701714205,107.45615994096454,https://www.yelp.com/biz/village-square-pizza-midtown-new-york-2?adjust_creative=7L58B9086saOW4zCCye5mg&utm_campaign=yelp_api_v3&utm_medium=api_v3_business_search&utm_source=7L58B9086saOW4zCCye5mg
Moxy NYC Times Square,HW0Zipp8-H4fZtqe2PmDGw,Dainobu Gourmet Deli,5.0,,"['delis', 'sushi', 'japanese']",40.75184,-73.98839,108.46881344017856,https://www.yelp.com/biz/dainobu-gourmet-deli-new-york?adjust_creative=7L58B9086saOW4zCCye5mg&utm_campaign=yelp_api_v3&utm_medium=api_v3_business_search&utm_source=7L58B9086saOW4zCCye5mg
Moxy NYC Times Square,w8hIGVi-Uxaro5R_4ZtVIw,Pizza Shop,0.0,,['pizza'],40.75145999020189,-73.9891093,108.71243346266063,https://www.yelp.com/biz/pizza-shop-new-york-4?adjust_creative=7L58B9086saOW4zCCye5mg&utm_campaign=yelp_api_v3&utm_medium=api_v3_business_search&utm_source=7L58B9086saOW4zCCye5mg
Moxy NYC Times Square,q1eZipdM-iaHysDd7CdECA,Jus by Julie,0.0,,"['juicebars', 'waffles', 'sandwiches']",40.751438,-73.989096,109.35982726705925,https://www.yelp.com/biz/jus-by-julie-new-york-2?adjust_creative=7L58B9086saOW4zCCye5mg&utm_campaign=yelp_api_v3&utm_medium=api_v3_business_search&utm_source=7L58B9086saOW4zCCye5mg
Moxy NYC Times Square,U4ionASf6xHu6c2-0STDYA,Pho 35,4.5,,['vietnamese'],40.751438,-73.989096,109.35982726705925,https://www.yelp.com/biz/pho-35-new-york?adjust_creative=7L58B9086saOW4zCCye5mg&utm_campaign=yelp_api_v3&utm_medium=api_v3_business_search&utm_source=7L58B9086saOW4zCCye5mg
Moxy NYC Times Square,xRA-6su9JN5cTF2fXaNycQ,Village Square Pizza,4.4,,['pizza'],40.751539,-73.989048,109.35982726705925,https://www.yelp.com/biz/village-square-pizza-new-york-8?adjust_creative=7L58B9086saOW4zCCye5mg&utm_campaign=yelp_api_v3&utm_medium=api_v3_business_search&utm_source=7L58B9086saOW4zCCye5mg
Moxy NYC Times Square,qJLXjq2SU36SWNm7yLKX6g,Made In New York Pizza,4.4,,['pizza'],40.75338419929282,-73.98912208502163,111.71213249130842,https://www.yelp.com/biz/made-in-new-york-pizza-new-york-10?adjust_creative=7L58B9086saOW4zCCye5mg&utm_campaign=yelp_api_v3&utm_medium=api_v3_business_search&utm_source=7L58B9086saOW4zCCye5mg
Moxy NYC Times Square,UJTWhv8RqDKLgZMX6Wh6jQ,Ling Long,4.5,,['dimsum'],40.752133113249805,-73.9907064,111.74684470336177,https://www.yelp.com/biz/ling-long-new-york-2?adjust_creative=7L58B9086saOW4zCCye5mg&utm_campaign=yelp_api_v3&utm_medium=api_v3_business_search&utm_source=7L58B9086saOW4zCCye5mg
Moxy NYC Times Square,Ucb36JIbwDZP3W49gCW0lA,YGF Malatang,4.5,$$,"['chinese', 'soup']",40.752138,-73.990676,112.12142782466314,https://www.yelp.com/biz/ygf-malatang-new-york-4?adjust_creative=7L58B9086saOW4zCCye5mg&utm_campaign=yelp_api_v3&utm_medium=api_v3_business_search&utm_source=7L58B9086saOW4zCCye5mg
Moxy NYC Times Square,NPG2jp4C61RJbmbA35p6xA,John Sullivan's,3.9,$$,"['irish', 'irish_pubs']",40.7517735073233,-73.9905076101422,114.89787862760843,https://www.yelp.com/biz/john-sullivans-new-york?adjust_creative=7L58B9086saOW4zCCye5mg&utm_campaign=yelp_api_v3&utm_medium=api_v3_business_search&utm_source=7L58B9086saOW4zCCye5mg
Moxy NYC Times Square,6OXeIDhiQirij2gc--gVFQ,Kaufman Arcade Assocs,0.0,,['restaurants'],40.75164,-73.98844,118.43442357227133,https://www.yelp.com/biz/kaufman-arcade-assocs-new-york?adjust_creative=7L58B9086saOW4zCCye5mg&utm_campaign=yelp_api_v3&utm_medium=api_v3_business_search&utm_source=7L58B9086saOW4zCCye5mg
Moxy NYC Times Square,-jSxoTeK6DXEqtEhlj2YFw,Faith's Halal Food,4.0,$,"['halal', 'foodstands']",40.7533527777398,-73.9900875091553,118.85801502887848,https://www.yelp.com/biz/faiths-halal-food-manhattan?adjust_creative=7L58B9086saOW4zCCye5mg&utm_campaign=yelp_api_v3&utm_medium=api_v3_business_search&utm_source=7L58B9086saOW4zCCye5mg
Moxy NYC Times Square,1DMZ8FwjjK0ufl1uM_k8Qw,Shamas Deli,4.6,$,['delis'],40.7530577723692,-73.987800828403,119.7144257884059,https://www.yelp.com/biz/shamas-deli-new-york?adjust_creative=7L58B9086saOW4zCCye5mg&utm_campaign=yelp_api_v3&utm_medium=api_v3_business_search&utm_source=7L58B9086saOW4zCCye5mg
Moxy NYC Times Square,gvOe1TLb8hZgx0naC9LYpw,Sei Less,3.9,,"['chinese', 'panasian', 'asianfusion']",40.75314,-73.98814,122.77553162635338,https://www.yelp.com/biz/sei-less-new-york-2?adjust_creative=7L58B9086saOW4zCCye5mg&utm_campaign=yelp_api_v3&utm_medium=api_v3_business_search&utm_source=7L58B9086saOW4zCCye5mg
Moxy NYC Times Square,ZuGbuaLCBBnju0irUM_32g,99 Cent Delicious Pizza,3.0,,"['pizza', 'italian', 'chicken_wings']",40.75164,-73.99039,122.91545112313148,https://www.yelp.com/biz/99-cent-delicious-pizza-new-york?adjust_creative=7L58B9086saOW4zCCye5mg&utm_campaign=yelp_api_v3&utm_medium=api_v3_business_search&utm_source=7L58B9086saOW4zCCye5mg
Moxy NYC Times Square,dpc_pxoGYofNIdL87ojlAw,Au Bon Pain,2.7,$,['cafes'],40.75140678821747,-73.99007884706799,123.9223593780391,https://www.yelp.com/biz/au-bon-pain-new-york-24?adjust_creative=7L58B9086saOW4zCCye5mg&utm_campaign=yelp_api_v3&utm_medium=api_v3_business_search&utm_source=7L58B9086saOW4zCCye5mg
Moxy NYC Times Square,wYF0OH03xAg3825796Gvag,als delicatessen,3.0,$,['delis'],40.7514519594097,-73.9903148263693,129.74087513099158,https://www.yelp.com/biz/als-delicatessen-new-york?adjust_creative=7L58B9086saOW4zCCye5mg&utm_campaign=yelp_api_v3&utm_medium=api_v3_business_search&utm_source=7L58B9086saOW4zCCye5mg
Residence Inn New York Manhattan/Central Park,423XF9KlbYMNpPs6wUvqZg,Queen Maeve,0.0,,"['newamerican', 'bars']",40.7642684,-73.98260753215351,20.691237065781742,https://www.yelp.com/biz/queen-maeve-new-york?adjust_creative=7L58B9086saOW4zCCye5mg&utm_campaign=yelp_api_v3&utm_medium=api_v3_business_search&utm_source=7L58B9086saOW4zCCye5mg
Residence Inn New York Manhattan/Central Park,MwcRbM6lS6_8N67LmyBELA,$1.50 Fresh Pizza,4.1,$,['pizza'],40.76458,-73.98247,28.55259650506012,https://www.yelp.com/biz/1-50-fresh-pizza-new-york-8?adjust_creative=7L58B9086saOW4zCCye5mg&utm_campaign=yelp_api_v3&utm_medium=api_v3_business_search&utm_source=7L58B9086saOW4zCCye5mg
Residence Inn New York Manhattan/Central Park,iMlCfute7BKB0vuXLlupYA,Empire Steak House - W 54th St,3.5,$$$$,"['steak', 'seafood', 'venues']",40.76441,-73.98311,30.339232769554602,https://www.yelp.com/biz/empire-steak-house-w-54th-st-new-york?adjust_creative=7L58B9086saOW4zCCye5mg&utm_campaign=yelp_api_v3&utm_medium=api_v3_business_search&utm_source=7L58B9086saOW4zCCye5mg
Residence Inn New York Manhattan/Central Park,0KrOkhh3VjlnQSVROQM_Xg,Applejack Diner,3.1,$$,"['diners', 'desserts', 'breakfast_brunch']",40.7645296,-73.9824447,35.668446988004476,https://www.yelp.com/biz/applejack-diner-new-york?adjust_creative=7L58B9086saOW4zCCye5mg&utm_campaign=yelp_api_v3&utm_medium=api_v3_business_search&utm_source=7L58B9086saOW4zCCye5mg
Residence Inn New York Manhattan/Central Park,3dQ6eutxp0tbvrVe8TjTaQ,Black Iron Burger,4.1,$$,"['burgers', 'beer_and_wine', 'cocktailbars']",40.76433,-73.98343,41.33828182275885,https://www.yelp.com/biz/black-iron-burger-new-york-17?adjust_creative=7L58B9086saOW4zCCye5mg&utm_campaign=yelp_api_v3&utm_medium=api_v3_business_search&utm_source=7L58B9086saOW4zCCye5mg
Residence Inn New York Manhattan/Central Park,w_u28CgB2CL_8g_fm90eIg,Subway,1.7,$,"['sandwiches', 'hotdogs']",40.76433,-73.98343,41.33828182275885,https://www.yelp.com/biz/subway-new-york-393?adjust_creative=7L58B9086saOW4zCCye5mg&utm_campaign=yelp_api_v3&utm_medium=api_v3_business_search&utm_source=7L58B9086saOW4zCCye5mg
Residence Inn New York Manhattan/Central Park,-IOW3rSS4aE1lupRMWdZRg,Nirvana 54,3.0,,['bangladeshi'],40.76398708965025,-73.98272106623106,48.19901837973999,https://www.yelp.com/biz/nirvana-54-new-york?adjust_creative=7L58B9086saOW4zCCye5mg&utm_campaign=yelp_api_v3&utm_medium=api_v3_business_search&utm_source=7L58B9086saOW4zCCye5mg
Residence Inn New York Manhattan/Central Park,hqYxqGdWaAFef_gruLXdpQ,The Grisly Pear,4.1,,"['sportsbars', 'comedyclubs', 'burgers']",40.76449,-73.9833,48.59252221698481,https://www.yelp.com/biz/the-grisly-pear-new-york-4?adjust_creative=7L58B9086saOW4zCCye5mg&utm_campaign=yelp_api_v3&utm_medium=api_v3_business_search&utm_source=7L58B9086saOW4zCCye5mg
Residence Inn New York Manhattan/Central Park,-0qjd1capMU0UxJmvLxiIg,Imasa Nori Sushi Izakaya,4.4,,"['sushi', 'izakaya', 'noodles']",40.76458580764928,-73.9832909444271,49.14702308840051,https://www.yelp.com/biz/imasa-nori-sushi-izakaya-new-york-2?adjust_creative=7L58B9086saOW4zCCye5mg&utm_campaign=yelp_api_v3&utm_medium=api_v3_business_search&utm_source=7L58B9086saOW4zCCye5mg
Residence Inn New York Manhattan/Central Park,B6eNhdBB0n5auXkRdpWr3Q,King Souvlaki,4.2,,"['greek', 'foodtrucks']",40.76473,-73.9822,56.575441208995,https://www.yelp.com/biz/king-souvlaki-new-york?adjust_creative=7L58B9086saOW4zCCye5mg&utm_campaign=yelp_api_v3&utm_medium=api_v3_business_search&utm_source=7L58B9086saOW4zCCye5mg
Residence Inn New York Manhattan/Central Park,JJluK3s0SKFv02LKZbl_kw,Old Traditional Polish Cuisine,4.3,$,"['polish', 'foodtrucks', 'catering']",40.7647053435302,-73.9821391124684,60.445287277617844,https://www.yelp.com/biz/old-traditional-polish-cuisine-new-york?adjust_creative=7L58B9086saOW4zCCye5mg&utm_campaign=yelp_api_v3&utm_medium=api_v3_business_search&utm_source=7L58B9086saOW4zCCye5mg
Residence Inn New York Manhattan/Central Park,LkIXyqOpzBI6DBuz7M_vew,Coffee Shop Live Music,0.0,,['cafes'],40.7649257391656,-73.9830183634917,60.60737851764984,https://www.yelp.com/biz/coffee-shop-live-music-new-york?adjust_creative=7L58B9086saOW4zCCye5mg&utm_campaign=yelp_api_v3&utm_medium=api_v3_business_search&utm_source=7L58B9086saOW4zCCye5mg
Residence Inn New York Manhattan/Central Park,_wsPfnUO-pRrvh54c1M2qw,McGee's Pub,3.4,$$,"['irish_pubs', 'burgers', 'sandwiches']",40.76493,-73.9829,61.03453387701885,https://www.yelp.com/biz/mcgees-pub-new-york-2?adjust_creative=7L58B9086saOW4zCCye5mg&utm_campaign=yelp_api_v3&utm_medium=api_v3_business_search&utm_source=7L58B9086saOW4zCCye5mg
Residence Inn New York Manhattan/Central Park,Xjswj531-FkRZPpcccU6kQ,Vida Verde,4.2,$$,"['cocktailbars', 'mexican', 'venues']",40.7649503286729,-73.9828372257363,63.57515754406228,https://www.yelp.com/biz/vida-verde-new-york-3?adjust_creative=7L58B9086saOW4zCCye5mg&utm_campaign=yelp_api_v3&utm_medium=api_v3_business_search&utm_source=7L58B9086saOW4zCCye5mg
Residence Inn New York Manhattan/Central Park,rYvxje-p3e5sR4bJflz_pw,Angelo's Pizza,3.6,$$,"['pizza', 'italian']",40.7638169909039,-73.9827420901337,67.05478696747286,https://www.yelp.com/biz/angelos-pizza-new-york?adjust_creative=7L58B9086saOW4zCCye5mg&utm_campaign=yelp_api_v3&utm_medium=api_v3_business_search&utm_source=7L58B9086saOW4zCCye5mg
Residence Inn New York Manhattan/Central Park,X-O6D7DRxc6Wy3VNwFtytQ,Chin-Ya Restaurant,5.0,,['restaurants'],40.7644613832235,-73.9816680550575,67.66493283761656,https://www.yelp.com/biz/chin-ya-restaurant-new-york?adjust_creative=7L58B9086saOW4zCCye5mg&utm_campaign=yelp_api_v3&utm_medium=api_v3_business_search&utm_source=7L58B9086saOW4zCCye5mg
Residence Inn New York Manhattan/Central Park,u5zbsITgkFbAlRq0j-XE-g,Serafina - Broadway 55th,3.1,$$,"['italian', 'pizza', 'bars']",40.764415484123354,-73.9819469,67.63816059303971,https://www.yelp.com/biz/serafina-broadway-55th-new-york-3?adjust_creative=7L58B9086saOW4zCCye5mg&utm_campaign=yelp_api_v3&utm_medium=api_v3_business_search&utm_source=7L58B9086saOW4zCCye5mg
Residence Inn New York Manhattan/Central Park,10BR62OFcL6IlljyYiIWbg,Le Pain Quotidien,3.1,$$,"['coffee', 'breakfast_brunch', 'bakeries']",40.764917034572235,-73.98344099521643,80.2567134464223,https://www.yelp.com/biz/le-pain-quotidien-new-york-141?adjust_creative=7L58B9086saOW4zCCye5mg&utm_campaign=yelp_api_v3&utm_medium=api_v3_business_search&utm_source=7L58B9086saOW4zCCye5mg
Residence Inn New York Manhattan/Central Park,Kiwycycledob3b6wOxoXEA,Koete Omakase,4.8,,"['sushi', 'seafood', 'japanese']",40.76367,-73.98288,83.61541222237206,https://www.yelp.com/biz/koete-omakase-new-york?adjust_creative=7L58B9086saOW4zCCye5mg&utm_campaign=yelp_api_v3&utm_medium=api_v3_business_search&utm_source=7L58B9086saOW4zCCye5mg
Residence Inn New York Manhattan/Central Park,ZwPSNCPm7d3s82CRvVauDg,Foodcitycafe and pizza,1.0,,"['cafes', 'pizza', 'salad']",40.76352,-73.98294,89.15652855542776,https://www.yelp.com/biz/foodcitycafe-and-pizza-new-york?adjust_creative=7L58B9086saOW4zCCye5mg&utm_campaign=yelp_api_v3&utm_medium=api_v3_business_search&utm_source=7L58B9086saOW4zCCye5mg
Residence Inn New York Manhattan/Central Park,z5hRX3iJ5Ty_S38iG_WY3Q,Tanner Smiths,4.3,$$,"['cocktailbars', 'newamerican', 'beerbar']",40.76442,-73.98169,89.55938929062062,https://www.yelp.com/biz/tanner-smiths-new-york-2?adjust_creative=7L58B9086saOW4zCCye5mg&utm_campaign=yelp_api_v3&utm_medium=api_v3_business_search&utm_source=7L58B9086saOW4zCCye5mg
Residence Inn New York Manhattan/Central Park,b5ceUJ9PwgYSWtWTKgBSEA,Mezeh,4.1,,"['mediterranean', 'salad', 'halal']",40.763626375960776,-73.98244271033029,91.96343492965113,https://www.yelp.com/biz/mezeh-new-york-7?adjust_creative=7L58B9086saOW4zCCye5mg&utm_campaign=yelp_api_v3&utm_medium=api_v3_business_search&utm_source=7L58B9086saOW4zCCye5mg
Residence Inn New York Manhattan/Central Park,13mTRQCzKWZ58k-g6TEwBw,Food City Cafe And Pizza,2.5,,"['pizza', 'cafes']",40.76360645554898,-73.98300714790821,93.01816185153908,https://www.yelp.com/biz/food-city-cafe-and-pizza-new-york?adjust_creative=7L58B9086saOW4zCCye5mg&utm_campaign=yelp_api_v3&utm_medium=api_v3_business_search&utm_source=7L58B9086saOW4zCCye5mg
Residence Inn New York Manhattan/Central Park,E5GYUN-Y5ewHRIE3wQZVEQ,Hello Deli,4.2,$$,"['delis', 'sandwiches']",40.763639,-73.983171,93.80239123146225,https://www.yelp.com/biz/hello-deli-new-york?adjust_creative=7L58B9086saOW4zCCye5mg&utm_campaign=yelp_api_v3&utm_medium=api_v3_business_search&utm_source=7L58B9086saOW4zCCye5mg
Residence Inn New York Manhattan/Central Park,6oEG1KOjDHGanOBSJ-GL7A,Pret A Manger,3.5,$,"['sandwiches', 'coffee', 'breakfast_brunch']",40.76350471741194,-73.98244720028067,104.9210090443818,https://www.yelp.com/biz/pret-a-manger-new-york-78?adjust_creative=7L58B9086saOW4zCCye5mg&utm_campaign=yelp_api_v3&utm_medium=api_v3_business_search&utm_source=7L58B9086saOW4zCCye5mg
Residence Inn New York Manhattan/Central Park,8MMdW-6pYHTUW-swY9TKTw,Shake Shack 1700 Broadway - 53rd & 7th,3.3,$$,"['burgers', 'icecream', 'hotdogs']",40.76352,-73.98235,105.59327890655238,https://www.yelp.com/biz/shake-shack-new-york-64?adjust_creative=7L58B9086saOW4zCCye5mg&utm_campaign=yelp_api_v3&utm_medium=api_v3_business_search&utm_source=7L58B9086saOW4zCCye5mg
Residence Inn New York Manhattan/Central Park,-sr_OJ-qNESbwUqDtODjcg,Chop & Go,3.4,,"['salad', 'wraps']",40.76352005692283,-73.98234033791475,105.84971405635866,https://www.yelp.com/biz/chop-and-go-new-york-4?adjust_creative=7L58B9086saOW4zCCye5mg&utm_campaign=yelp_api_v3&utm_medium=api_v3_business_search&utm_source=7L58B9086saOW4zCCye5mg
Residence Inn New York Manhattan/Central Park,VzstANC68PM1BbyOcDXEtw,Donburiya,3.9,$$,"['japanese', 'seafood', 'desserts']",40.76528,-73.98326,108.75034586155161,https://www.yelp.com/biz/donburiya-new-york-2?adjust_creative=7L58B9086saOW4zCCye5mg&utm_campaign=yelp_api_v3&utm_medium=api_v3_business_search&utm_source=7L58B9086saOW4zCCye5mg
Residence Inn New York Manhattan/Central Park,xN4yKQMzo3PIoQlFamUOLQ,La Esquina - Midtown,3.8,$$,"['mexican', 'latin']",40.7642986928764,-73.9814604957066,109.43536013850064,https://www.yelp.com/biz/la-esquina-midtown-new-york-2?adjust_creative=7L58B9086saOW4zCCye5mg&utm_campaign=yelp_api_v3&utm_medium=api_v3_business_search&utm_source=7L58B9086saOW4zCCye5mg
Residence Inn New York Manhattan/Central Park,DNSFvZtdsqkaidmFSpm-Jw,Soba Noodle Azuma,4.1,$$,"['noodles', 'izakaya']",40.76537,-73.98312,109.44058825655388,https://www.yelp.com/biz/soba-noodle-azuma-new-york-3?adjust_creative=7L58B9086saOW4zCCye5mg&utm_campaign=yelp_api_v3&utm_medium=api_v3_business_search&utm_source=7L58B9086saOW4zCCye5mg
Residence Inn New York Manhattan/Central Park,YC-wGlO0oOkEIaCEDZv-ag,Yakitori Totto,4.0,$$,['japanese'],40.765375,-73.983114,110.52735509008092,https://www.yelp.com/biz/yakitori-totto-new-york?adjust_creative=7L58B9086saOW4zCCye5mg&utm_campaign=yelp_api_v3&utm_medium=api_v3_business_search&utm_source=7L58B9086saOW4zCCye5mg
Residence Inn New York Manhattan/Central Park,HRwLdsd_debjXbB9bP1SFA,Chick-fil-A,3.5,$$,"['hotdogs', 'chickenshop', 'salad']",40.7650002,-73.9838178,110.67692189874082,https://www.yelp.com/biz/chick-fil-a-new-york-22?adjust_creative=7L58B9086saOW4zCCye5mg&utm_campaign=yelp_api_v3&utm_medium=api_v3_business_search&utm_source=7L58B9086saOW4zCCye5mg
Residence Inn New York Manhattan/Central Park,KHRrlw05_pv_fd8ntvS1xw,SUGARFISH | Midtown West,4.3,$$$,"['japanese', 'sushi']",40.764961,-73.981612,111.42614345324588,https://www.yelp.com/biz/sugarfish-midtown-west-new-york?adjust_creative=7L58B9086saOW4zCCye5mg&utm_campaign=yelp_api_v3&utm_medium=api_v3_business_search&utm_source=7L58B9086saOW4zCCye5mg
Residence Inn New York Manhattan/Central Park,_DCQTXLBK1ZZE2GkaSMw9g,NAYA,4.8,,"['mideastern', 'mediterranean']",40.76496028879658,-73.9838936502536,113.51736257142875,https://www.yelp.com/biz/naya-new-york-71?adjust_creative=7L58B9086saOW4zCCye5mg&utm_campaign=yelp_api_v3&utm_medium=api_v3_business_search&utm_source=7L58B9086saOW4zCCye5mg
Residence Inn New York Manhattan/Central Park,-VQ6ZDZRijur0S7C_D6xOg,Heaven on 7th Marketplace,4.4,,"['delis', 'pizza', 'chicken_wings']",40.76407821125445,-73.9814793,113.56544511814263,https://www.yelp.com/biz/heaven-on-7th-marketplace-new-york?adjust_creative=7L58B9086saOW4zCCye5mg&utm_campaign=yelp_api_v3&utm_medium=api_v3_business_search&utm_source=7L58B9086saOW4zCCye5mg
Residence Inn New York Manhattan/Central Park,ECUTH1VOWxZ9GwfzblMKzA,Mughlai Indian Cuisine,4.4,$$,['indpak'],40.765394,-73.983272,115.1156768412024,https://www.yelp.com/biz/mughlai-indian-cuisine-new-york-8?adjust_creative=7L58B9086saOW4zCCye5mg&utm_campaign=yelp_api_v3&utm_medium=api_v3_business_search&utm_source=7L58B9086saOW4zCCye5mg
Residence Inn New York Manhattan/Central Park,505bv6h3VnN6SekdHCr8Sw,Nocello,4.0,$$$,"['italian', 'venues', 'wine_bars']",40.76535857831784,-73.98338622822433,117.3162622012846,https://www.yelp.com/biz/nocello-new-york?adjust_creative=7L58B9086saOW4zCCye5mg&utm_campaign=yelp_api_v3&utm_medium=api_v3_business_search&utm_source=7L58B9086saOW4zCCye5mg
Residence Inn New York Manhattan/Central Park,HuSaFUqMDLbovpU-XbR9UA,The Original Soupman,4.1,$$,"['soup', 'seafood']",40.76538473997948,-73.9834392665359,121.97296787259917,https://www.yelp.com/biz/the-original-soupman-new-york-7?adjust_creative=7L58B9086saOW4zCCye5mg&utm_campaign=yelp_api_v3&utm_medium=api_v3_business_search&utm_source=7L58B9086saOW4zCCye5mg
Residence Inn New York Manhattan/Central Park,jx2XSHvwGoypp3sYE8vnGA,Subway,1.5,$,"['sandwiches', 'hotdogs']",40.76349335277211,-73.98195539999999,122.86297085370187,https://www.yelp.com/biz/subway-new-york-482?adjust_creative=7L58B9086saOW4zCCye5mg&utm_campaign=yelp_api_v3&utm_medium=api_v3_business_search&utm_source=7L58B9086saOW4zCCye5mg
Residence Inn New York Manhattan/Central Park,0L540om5LFf-u_2O036jMw,Taprobane,0.0,,['newamerican'],40.765503,-73.982674,122.82703745183942,https://www.yelp.com/biz/taprobane-new-york?adjust_creative=7L58B9086saOW4zCCye5mg&utm_campaign=yelp_api_v3&utm_medium=api_v3_business_search&utm_source=7L58B9086saOW4zCCye5mg
Residence Inn New York Manhattan/Central Park,Tbzppzjv0d_qp_B9BYmAkA,Cascade Cafe,3.7,$,"['cafes', 'coffee', 'sandwiches']",40.764602,-73.9842,123.78294122010797,https://www.yelp.com/biz/cascade-cafe-new-york?adjust_creative=7L58B9086saOW4zCCye5mg&utm_campaign=yelp_api_v3&utm_medium=api_v3_business_search&utm_source=7L58B9086saOW4zCCye5mg
Residence Inn New York Manhattan/Central Park,pfeYELEKiAXlHY6fWnviEA,sweetgreen,3.3,,['salad'],40.76525931574065,-73.98177569999997,124.2694738375248,https://www.yelp.com/biz/sweetgreen-new-york-44?adjust_creative=7L58B9086saOW4zCCye5mg&utm_campaign=yelp_api_v3&utm_medium=api_v3_business_search&utm_source=7L58B9086saOW4zCCye5mg
Residence Inn New York Manhattan/Central Park,-GOLbDjzpwGPq86RG1sYwQ,Sky Sun,5.0,,"['delis', 'sandwiches']",40.7642,-73.98123,124.72696405145578,https://www.yelp.com/biz/sky-sun-new-york?adjust_creative=7L58B9086saOW4zCCye5mg&utm_campaign=yelp_api_v3&utm_medium=api_v3_business_search&utm_source=7L58B9086saOW4zCCye5mg
Residence Inn New York Manhattan/Central Park,Lb-MDJdlFal0HKBQDAzH3Q,Premier Deli Cafe,3.6,$$,['delis'],40.764255,-73.981369,124.72696405145578,https://www.yelp.com/biz/premier-deli-cafe-new-york-2?adjust_creative=7L58B9086saOW4zCCye5mg&utm_campaign=yelp_api_v3&utm_medium=api_v3_business_search&utm_source=7L58B9086saOW4zCCye5mg
Residence Inn New York Manhattan/Central Park,goqTQ4tOD-asC_ZJBW9l7w,Patsy's Italian Restaurant,4.0,$$$,"['italian', 'southern', 'wine_bars']",40.76553,-73.98274,125.37184395386066,https://www.yelp.com/biz/patsys-italian-restaurant-new-york?adjust_creative=7L58B9086saOW4zCCye5mg&utm_campaign=yelp_api_v3&utm_medium=api_v3_business_search&utm_source=7L58B9086saOW4zCCye5mg
Residence Inn New York Manhattan/Central Park,vKZtRwpeqvbNQn42__Zqrw,Zheng's Lucky Sunday Garden,0.0,,['chinese'],40.76541,-73.98352,128.6415723235847,https://www.yelp.com/biz/zhengs-lucky-sunday-garden-new-york-3?adjust_creative=7L58B9086saOW4zCCye5mg&utm_campaign=yelp_api_v3&utm_medium=api_v3_business_search&utm_source=7L58B9086saOW4zCCye5mg
Residence Inn New York Manhattan/Central Park,yQiII2hHgV5aEMtIA2VG0Q,Chai Thai Kitchen,3.4,$$,['thai'],40.765426,-73.983526,128.7759943757781,https://www.yelp.com/biz/chai-thai-kitchen-new-york-10?adjust_creative=7L58B9086saOW4zCCye5mg&utm_campaign=yelp_api_v3&utm_medium=api_v3_business_search&utm_source=7L58B9086saOW4zCCye5mg
Residence Inn New York Manhattan/Central Park,dy_xfi_3asaGjcVpndh1SA,IRIS Restaurant,4.2,,"['mediterranean', 'turkish', 'greek']",40.764981,-73.981702,130.81897317273663,https://www.yelp.com/biz/iris-restaurant-new-york?adjust_creative=7L58B9086saOW4zCCye5mg&utm_campaign=yelp_api_v3&utm_medium=api_v3_business_search&utm_source=7L58B9086saOW4zCCye5mg
Residence Inn New York Manhattan/Central Park,sPMVujhK65osBLvzNZZVhg,City Perk,0.0,,['restaurants'],40.765007,-73.981926,131.01914401121454,https://www.yelp.com/biz/city-perk-new-york-3?adjust_creative=7L58B9086saOW4zCCye5mg&utm_campaign=yelp_api_v3&utm_medium=api_v3_business_search&utm_source=7L58B9086saOW4zCCye5mg
Residence Inn New York Manhattan/Central Park,FKl05Hg86VelDXocZq-HLA,Pizza Hut,2.0,,"['chicken_wings', 'hotdogs', 'pizza']",40.765449,-73.983468,131.08840179614495,https://www.yelp.com/biz/pizza-hut-new-york-34?adjust_creative=7L58B9086saOW4zCCye5mg&utm_campaign=yelp_api_v3&utm_medium=api_v3_business_search&utm_source=7L58B9086saOW4zCCye5mg
Courtyard New York Manhattan/Times Square West,MseBujJvG-vzAZ3cmfS7cQ,Subway - 8th Ave,3.0,,"['hotdogs', 'breakfast_brunch', 'sandwiches']",40.75450668849541,-73.99216539999999,34.06321529808607,https://www.yelp.com/biz/subway-8th-ave-new-york?adjust_creative=7L58B9086saOW4zCCye5mg&utm_campaign=yelp_api_v3&utm_medium=api_v3_business_search&utm_source=7L58B9086saOW4zCCye5mg
Courtyard New York Manhattan/Times Square West,RFYrFIr7AO8zm6KyUXV_IA,Paris and Rome,0.0,,"['italian', 'french', 'fooddeliveryservices']",40.75416,-73.9926,37.6244420051947,https://www.yelp.com/biz/paris-and-rome-new-york?adjust_creative=7L58B9086saOW4zCCye5mg&utm_campaign=yelp_api_v3&utm_medium=api_v3_business_search&utm_source=7L58B9086saOW4zCCye5mg
Courtyard New York Manhattan/Times Square West,jTfTgoy4B1yonzEFawhRxg,White Castle,2.9,,"['hotdogs', 'burgers']",40.75429632932796,-73.99211961505698,43.85803228969762,https://www.yelp.com/biz/white-castle-new-york-9?adjust_creative=7L58B9086saOW4zCCye5mg&utm_campaign=yelp_api_v3&utm_medium=api_v3_business_search&utm_source=7L58B9086saOW4zCCye5mg
Courtyard New York Manhattan/Times Square West,Ui-E0CK2BBVVoOzulzzhcQ,Carmen's Kitchen,4.3,$$,"['chickenshop', 'latin']",40.7547995,-73.9921988,46.06676762645136,https://www.yelp.com/biz/carmens-kitchen-new-york?adjust_creative=7L58B9086saOW4zCCye5mg&utm_campaign=yelp_api_v3&utm_medium=api_v3_business_search&utm_source=7L58B9086saOW4zCCye5mg
Courtyard New York Manhattan/Times Square West,6QHTvXFAYxCmys3412aUMQ,Breakfast Cart,3.0,,['foodstands'],40.75411828084853,-73.99227842027005,48.527474156932975,https://www.yelp.com/biz/breakfast-cart-new-york?adjust_creative=7L58B9086saOW4zCCye5mg&utm_campaign=yelp_api_v3&utm_medium=api_v3_business_search&utm_source=7L58B9086saOW4zCCye5mg
Courtyard New York Manhattan/Times Square West,X2CQCOS4AiwKzqAOrZxeYg,Bites Of Xi’an,4.1,,"['chinese', 'noodles', 'burgers']",40.7546,-73.99194,54.004406334946545,https://www.yelp.com/biz/bites-of-xi-an-new-york-3?adjust_creative=7L58B9086saOW4zCCye5mg&utm_campaign=yelp_api_v3&utm_medium=api_v3_business_search&utm_source=7L58B9086saOW4zCCye5mg
Courtyard New York Manhattan/Times Square West,r5LkBaz7wkLe8I5umglUXQ,Bites of Xi’an,4.3,,"['noodles', 'szechuan', 'burgers']",40.7546,-73.99194,54.004406334946545,https://www.yelp.com/biz/bites-of-xi-an-new-york-2?adjust_creative=7L58B9086saOW4zCCye5mg&utm_campaign=yelp_api_v3&utm_medium=api_v3_business_search&utm_source=7L58B9086saOW4zCCye5mg
Courtyard New York Manhattan/Times Square West,zxEjF0MSHuJRmE2-g_VWVg,2 Bros Pizza,3.7,$,['pizza'],40.754745,-73.992004,54.18879076322894,https://www.yelp.com/biz/2-bros-pizza-new-york-5?adjust_creative=7L58B9086saOW4zCCye5mg&utm_campaign=yelp_api_v3&utm_medium=api_v3_business_search&utm_source=7L58B9086saOW4zCCye5mg
Courtyard New York Manhattan/Times Square West,lXb9_eT8ni7rLC_MyTPpBw,KPOT Korean BBQ & Hot Pot,4.3,$$$,"['korean', 'bbq', 'hotpot']",40.755,-73.99256,56.17019522482951,https://www.yelp.com/biz/kpot-korean-bbq-and-hot-pot-new-york-3?adjust_creative=7L58B9086saOW4zCCye5mg&utm_campaign=yelp_api_v3&utm_medium=api_v3_business_search&utm_source=7L58B9086saOW4zCCye5mg
Courtyard New York Manhattan/Times Square West,eHkPYIKtMTWOws9E0QcY_w,L & L Hawaii Barbeque,4.0,,['restaurants'],40.75395,-73.99242,61.458538797241005,https://www.yelp.com/biz/l-and-l-hawaii-barbeque-new-york?adjust_creative=7L58B9086saOW4zCCye5mg&utm_campaign=yelp_api_v3&utm_medium=api_v3_business_search&utm_source=7L58B9086saOW4zCCye5mg
Courtyard New York Manhattan/Times Square West,YXsbUiXDknt7PJ2kKYi8iw,Meow,0.0,,['cafes'],40.75383,-73.99308,72.82646580801286,https://www.yelp.com/biz/meow-new-york?adjust_creative=7L58B9086saOW4zCCye5mg&utm_campaign=yelp_api_v3&utm_medium=api_v3_business_search&utm_source=7L58B9086saOW4zCCye5mg
Courtyard New York Manhattan/Times Square West,4wgyiZ6zIBru1JMmqb5Z9g,Double Dragon Worldwide Rice & Noodle,0.0,,"['fooddeliveryservices', 'noodles']",40.75505,-73.99216,75.20477189443753,https://www.yelp.com/biz/double-dragon-worldwide-rice-and-noodle-new-york?adjust_creative=7L58B9086saOW4zCCye5mg&utm_campaign=yelp_api_v3&utm_medium=api_v3_business_search&utm_source=7L58B9086saOW4zCCye5mg
Courtyard New York Manhattan/Times Square West,yg38NQsXeIGZhneSF_Ef2A,Burger Village,0.0,,"['burgers', 'vegan', 'gluten_free']",40.75505,-73.99216,75.20477189443753,https://www.yelp.com/biz/burger-village-new-york?adjust_creative=7L58B9086saOW4zCCye5mg&utm_campaign=yelp_api_v3&utm_medium=api_v3_business_search&utm_source=7L58B9086saOW4zCCye5mg
Courtyard New York Manhattan/Times Square West,-q0j_nY0wgG7VPY-Ihha-w,Zhi Bin Fashions,0.0,,['restaurants'],40.75505,-73.99216,75.20477189443753,https://www.yelp.com/biz/zhi-bin-fashions-new-york?adjust_creative=7L58B9086saOW4zCCye5mg&utm_campaign=yelp_api_v3&utm_medium=api_v3_business_search&utm_source=7L58B9086saOW4zCCye5mg
Courtyard New York Manhattan/Times Square West,LjJNSZ7DtsKbBGMcKvOjag,Finer Dining Company,0.0,,['newamerican'],40.75505,-73.99216,75.20477189443753,https://www.yelp.com/biz/finer-dining-company-new-york?adjust_creative=7L58B9086saOW4zCCye5mg&utm_campaign=yelp_api_v3&utm_medium=api_v3_business_search&utm_source=7L58B9086saOW4zCCye5mg
Courtyard New York Manhattan/Times Square West,xUmI665ZuCzd2fl6ssbSXA,The SSam,4.9,,"['korean', 'asianfusion', 'salad']",40.7552,-73.992199,75.20477189443753,https://www.yelp.com/biz/the-ssam-new-york-2?adjust_creative=7L58B9086saOW4zCCye5mg&utm_campaign=yelp_api_v3&utm_medium=api_v3_business_search&utm_source=7L58B9086saOW4zCCye5mg
Courtyard New York Manhattan/Times Square West,jlAaBKK3oEa2qwaS4qrEQQ,Jersey Mike's Subs,2.2,,"['hotdogs', 'delis', 'sandwiches']",40.75517,-73.99247,75.53401557964068,https://www.yelp.com/biz/jersey-mikes-subs-new-york-4?adjust_creative=7L58B9086saOW4zCCye5mg&utm_campaign=yelp_api_v3&utm_medium=api_v3_business_search&utm_source=7L58B9086saOW4zCCye5mg
Courtyard New York Manhattan/Times Square West,7LZgqdUs_Tq0FYUuOAXvuw,Vanilla Gorilla Cafe,4.3,,"['coffee', 'sandwiches', 'cafes']",40.75382,-73.9925,78.95457419472794,https://www.yelp.com/biz/vanilla-gorilla-cafe-new-york-4?adjust_creative=7L58B9086saOW4zCCye5mg&utm_campaign=yelp_api_v3&utm_medium=api_v3_business_search&utm_source=7L58B9086saOW4zCCye5mg
Courtyard New York Manhattan/Times Square West,Vnpm_nNxvFMiFMpyME4SkQ,Pronto Pizza,0.0,,['pizza'],40.7537816072392,-73.992640171793,79.53752499851505,https://www.yelp.com/biz/pronto-pizza-new-york-15?adjust_creative=7L58B9086saOW4zCCye5mg&utm_campaign=yelp_api_v3&utm_medium=api_v3_business_search&utm_source=7L58B9086saOW4zCCye5mg
Courtyard New York Manhattan/Times Square West,-30atLcmWeUfcrF4mFE74g,Vue 180,1.8,,"['bars', 'mediterranean']",40.75376546102176,-73.99259371558449,81.13546694167947,https://www.yelp.com/biz/vue-180-new-york?adjust_creative=7L58B9086saOW4zCCye5mg&utm_campaign=yelp_api_v3&utm_medium=api_v3_business_search&utm_source=7L58B9086saOW4zCCye5mg
Courtyard New York Manhattan/Times Square West,tA6dpS16L3qmV89yswa5xA,S and S Deli,0.0,,['delis'],40.75375,-73.99292,82.48877976670246,https://www.yelp.com/biz/s-and-s-deli-new-york?adjust_creative=7L58B9086saOW4zCCye5mg&utm_campaign=yelp_api_v3&utm_medium=api_v3_business_search&utm_source=7L58B9086saOW4zCCye5mg
Courtyard New York Manhattan/Times Square West,9nz8T-qQ2vZ6ccGyI7Nkmg,Tabernacle Steakhouse,3.8,$$$$,"['steak', 'kosher', 'venues']",40.75396,-73.99342,83.1899455438911,https://www.yelp.com/biz/tabernacle-steakhouse-new-york?adjust_creative=7L58B9086saOW4zCCye5mg&utm_campaign=yelp_api_v3&utm_medium=api_v3_business_search&utm_source=7L58B9086saOW4zCCye5mg
Courtyard New York Manhattan/Times Square West,1mA-tdMTqDGqqJsOlB9HTg,Doyler's 37,3.5,,"['newamerican', 'irish_pubs', 'wine_bars']",40.7544899,-73.9936,87.54095112579127,https://www.yelp.com/biz/doylers-37-new-york?adjust_creative=7L58B9086saOW4zCCye5mg&utm_campaign=yelp_api_v3&utm_medium=api_v3_business_search&utm_source=7L58B9086saOW4zCCye5mg
Courtyard New York Manhattan/Times Square West,pHDoLFJQWpUZjcyPBtveQw,Āne Bar & Restaurant,3.3,,"['indpak', 'italian', 'tradamerican']",40.75449,-73.9936,87.74121638819037,https://www.yelp.com/biz/%C4%81ne-bar-and-restaurant-new-york?adjust_creative=7L58B9086saOW4zCCye5mg&utm_campaign=yelp_api_v3&utm_medium=api_v3_business_search&utm_source=7L58B9086saOW4zCCye5mg
Courtyard New York Manhattan/Times Square West,rXBep-kC4tJE0PqAt_VcGw,Jin Won Food,0.0,,['delis'],40.75498,-73.99166,90.25078481134511,https://www.yelp.com/biz/jin-won-food-new-york?adjust_creative=7L58B9086saOW4zCCye5mg&utm_campaign=yelp_api_v3&utm_medium=api_v3_business_search&utm_source=7L58B9086saOW4zCCye5mg
Courtyard New York Manhattan/Times Square West,shAnSvc4FJgfOSHBdGaTmw,OLIYO,0.0,,"['breakfast_brunch', 'delis', 'buffets']",40.755019,-73.991795,90.25078481134511,https://www.yelp.com/biz/oliyo-new-york?adjust_creative=7L58B9086saOW4zCCye5mg&utm_campaign=yelp_api_v3&utm_medium=api_v3_business_search&utm_source=7L58B9086saOW4zCCye5mg
Courtyard New York Manhattan/Times Square West,rDaFCFuZ4jc3JMadrDGYbA,Ramini Espresso Bar & Cafe,4.4,$,"['coffee', 'cafes']",40.7536963373423,-73.9910175651312,92.10266585558527,https://www.yelp.com/biz/ramini-espresso-bar-and-cafe-new-york?adjust_creative=7L58B9086saOW4zCCye5mg&utm_campaign=yelp_api_v3&utm_medium=api_v3_business_search&utm_source=7L58B9086saOW4zCCye5mg
Courtyard New York Manhattan/Times Square West,-hRbmowmGnvI96AqqQK5rA,Arte New York,0.0,,['restaurants'],40.75405,-73.9917,92.10266585558527,https://www.yelp.com/biz/arte-new-york-new-york?adjust_creative=7L58B9086saOW4zCCye5mg&utm_campaign=yelp_api_v3&utm_medium=api_v3_business_search&utm_source=7L58B9086saOW4zCCye5mg
Courtyard New York Manhattan/Times Square West,TH6R5hpIcY5rh3RyYGhU8w,Wings,0.0,,['chicken_wings'],40.75447,-73.99131,97.12658163654768,https://www.yelp.com/biz/wings-new-york?adjust_creative=7L58B9086saOW4zCCye5mg&utm_campaign=yelp_api_v3&utm_medium=api_v3_business_search&utm_source=7L58B9086saOW4zCCye5mg
Courtyard New York Manhattan/Times Square West,AStYD2Uo6NR1gzZ0xXrn9g,El Sabroso,3.8,$,"['latin', 'empanadas', 'tapasmallplates']",40.7540843452975,-73.9914900079345,101.74426709766396,https://www.yelp.com/biz/el-sabroso-new-york?adjust_creative=7L58B9086saOW4zCCye5mg&utm_campaign=yelp_api_v3&utm_medium=api_v3_business_search&utm_source=7L58B9086saOW4zCCye5mg
Courtyard New York Manhattan/Times Square West,IsCVV0EmG6NXsV2RIYbZCw,Azuki,3.0,$$,"['japanese', 'sushi', 'salad']",40.75357639508275,-73.99227161605849,105.1699733662221,https://www.yelp.com/biz/azuki-new-york-3?adjust_creative=7L58B9086saOW4zCCye5mg&utm_campaign=yelp_api_v3&utm_medium=api_v3_business_search&utm_source=7L58B9086saOW4zCCye5mg
Courtyard New York Manhattan/Times Square West,hOOzqt3Sral6ZoKfLQNxGg,Karkmilhi Grocery Store,0.0,,"['grocery', 'delis']",40.75459,-73.99383,105.92279349948792,https://www.yelp.com/biz/karkmilhi-grocery-store-new-york?adjust_creative=7L58B9086saOW4zCCye5mg&utm_campaign=yelp_api_v3&utm_medium=api_v3_business_search&utm_source=7L58B9086saOW4zCCye5mg
Courtyard New York Manhattan/Times Square West,5RqQOSTz5WBxZYH1iIzv4A,Los Tacos Hermanos,4.3,,['tacos'],40.75476,-73.99137,106.79684297164232,https://www.yelp.com/biz/los-tacos-hermanos-new-york?adjust_creative=7L58B9086saOW4zCCye5mg&utm_campaign=yelp_api_v3&utm_medium=api_v3_business_search&utm_source=7L58B9086saOW4zCCye5mg
Courtyard New York Manhattan/Times Square West,AJM_mr2ZrXbEbi2-XdPTPQ,Poke Bowl,3.0,,"['poke', 'sushi', 'hotdogs']",40.75476,-73.99137,106.79684297164232,https://www.yelp.com/biz/poke-bowl-new-york-21?adjust_creative=7L58B9086saOW4zCCye5mg&utm_campaign=yelp_api_v3&utm_medium=api_v3_business_search&utm_source=7L58B9086saOW4zCCye5mg
Courtyard New York Manhattan/Times Square West,AeNU0DYNtYDVPGnWAIh-0Q,Wok To Walk,3.5,$,"['asianfusion', 'hotdogs']",40.754724,-73.991278,106.79684297164232,https://www.yelp.com/biz/wok-to-walk-new-york-2?adjust_creative=7L58B9086saOW4zCCye5mg&utm_campaign=yelp_api_v3&utm_medium=api_v3_business_search&utm_source=7L58B9086saOW4zCCye5mg
Courtyard New York Manhattan/Times Square West,fzdhm15TEhU9bvyxmLfaOQ,Bento Box,0.0,,['tradamerican'],40.75476,-73.99137,106.79684297059978,https://www.yelp.com/biz/bento-box-new-york?adjust_creative=7L58B9086saOW4zCCye5mg&utm_campaign=yelp_api_v3&utm_medium=api_v3_business_search&utm_source=7L58B9086saOW4zCCye5mg
Courtyard New York Manhattan/Times Square West,fmDevpCspKyau9U3FFaE0w,Wing Squad,0.0,,"['fooddeliveryservices', 'chicken_wings', 'desserts']",40.755334686919454,-73.99319166196342,107.08004281558836,https://www.yelp.com/biz/wing-squad-new-york-3?adjust_creative=7L58B9086saOW4zCCye5mg&utm_campaign=yelp_api_v3&utm_medium=api_v3_business_search&utm_source=7L58B9086saOW4zCCye5mg
Courtyard New York Manhattan/Times Square West,Mt0IV51tKqSSeD8dM_wSig,Wing Society,0.0,,"['chicken_wings', 'fooddeliveryservices']",40.755334686919454,-73.99319166196342,107.08004281558836,https://www.yelp.com/biz/wing-society-new-york?adjust_creative=7L58B9086saOW4zCCye5mg&utm_campaign=yelp_api_v3&utm_medium=api_v3_business_search&utm_source=7L58B9086saOW4zCCye5mg
Courtyard New York Manhattan/Times Square West,AHInyVGuSZhdLnkM2QPHAw,Gyro Cart,4.7,,"['foodstands', 'importedfood']",40.755334686919454,-73.99319166196342,107.08004281558836,https://www.yelp.com/biz/gyro-cart-new-york?adjust_creative=7L58B9086saOW4zCCye5mg&utm_campaign=yelp_api_v3&utm_medium=api_v3_business_search&utm_source=7L58B9086saOW4zCCye5mg
Courtyard New York Manhattan/Times Square West,GLdiMv_f8JbMkfwdg2EX0g,Sunrise Sandwich,0.0,,"['fooddeliveryservices', 'sandwiches']",40.755334686919454,-73.99319166196342,107.08004281558836,https://www.yelp.com/biz/sunrise-sandwich-new-york?adjust_creative=7L58B9086saOW4zCCye5mg&utm_campaign=yelp_api_v3&utm_medium=api_v3_business_search&utm_source=7L58B9086saOW4zCCye5mg
Courtyard New York Manhattan/Times Square West,RkscMCXXgQX8XWu6yv7ZTQ,Tyga Bites,0.0,,"['comfortfood', 'fooddeliveryservices', 'chickenshop']",40.755334686919454,-73.99319166196342,107.08004281558836,https://www.yelp.com/biz/tyga-bites-new-york-19?adjust_creative=7L58B9086saOW4zCCye5mg&utm_campaign=yelp_api_v3&utm_medium=api_v3_business_search&utm_source=7L58B9086saOW4zCCye5mg
Courtyard New York Manhattan/Times Square West,uqynIAVqH767-jvkFVsrwQ,MrBeast Burger,0.0,,"['fooddeliveryservices', 'burgers']",40.755334686919454,-73.99319166196342,107.08004281558836,https://www.yelp.com/biz/mrbeast-burger-new-york-2?adjust_creative=7L58B9086saOW4zCCye5mg&utm_campaign=yelp_api_v3&utm_medium=api_v3_business_search&utm_source=7L58B9086saOW4zCCye5mg
Courtyard New York Manhattan/Times Square West,4Dq_z7c-bQsuIswS1NdB5A,The Good Rice Bowls,1.0,,"['fooddeliveryservices', 'tradamerican']",40.755334686919454,-73.99319166196342,107.08004281558836,https://www.yelp.com/biz/the-good-rice-bowls-new-york-3?adjust_creative=7L58B9086saOW4zCCye5mg&utm_campaign=yelp_api_v3&utm_medium=api_v3_business_search&utm_source=7L58B9086saOW4zCCye5mg
Courtyard New York Manhattan/Times Square West,jq1IFA2XcgmQ5W2CwBmGXA,Eggcellent Omelettes,0.0,,"['fooddeliveryservices', 'breakfast_brunch']",40.755334686919454,-73.99319166196342,107.08004281558836,https://www.yelp.com/biz/eggcellent-omelettes-new-york?adjust_creative=7L58B9086saOW4zCCye5mg&utm_campaign=yelp_api_v3&utm_medium=api_v3_business_search&utm_source=7L58B9086saOW4zCCye5mg
Courtyard New York Manhattan/Times Square West,WDFn6QwGiMBQ0_gc4m6mfA,Coffee Guys,5.0,,"['breakfast_brunch', 'foodtrucks']",40.755334686919454,-73.99319166196342,107.08004281558836,https://www.yelp.com/biz/coffee-guys-new-york?adjust_creative=7L58B9086saOW4zCCye5mg&utm_campaign=yelp_api_v3&utm_medium=api_v3_business_search&utm_source=7L58B9086saOW4zCCye5mg
Courtyard New York Manhattan/Times Square West,PYq9Px6F7YKjQdgX9eAIWA,Ninjaki,5.0,,"['japanese', 'foodtrucks', 'halal']",40.755335,-73.993192,107.1243367892029,https://www.yelp.com/biz/ninjaki-new-york-3?adjust_creative=7L58B9086saOW4zCCye5mg&utm_campaign=yelp_api_v3&utm_medium=api_v3_business_search&utm_source=7L58B9086saOW4zCCye5mg
