[
  {
    "id": 175181066,
    "name": "Griffon Gastropub",
    "cuisine": "american",
    "lat": 42.7680859,
    "lon": -78.6113159,
    "wheelchair": null,
    "diet_vegan": null,
    "addr_city": "New York",
    "timestamp": "2025-10-11T09:27:32.416882"
  },
  {
    "id": 175181076,
    "name": "Tony Rome's \"The Globe\"",
    "cuisine": null,
    "lat": 42.767621,
    "lon": -78.6083001,
    "wheelchair": null,
    "diet_vegan": null,
    "addr_city": "New York",
    "timestamp": "2025-10-11T09:27:32.416949"
  },
  {
    "id": 175181087,
    "name": "Rick's on Main",
    "cuisine": "american",
    "lat": 42.7675639,
    "lon": -78.6092902,
    "wheelchair": null,
    "diet_vegan": null,
    "addr_city": "New York",
    "timestamp": "2025-10-11T09:27:32.416954"
  },
  {
    "id": 175181195,
    "name": "East End Tap Room",
    "cuisine": null,
    "lat": 42.7674792,
    "lon": -78.6086259,
    "wheelchair": null,
    "diet_vegan": null,
    "addr_city": "New York",
    "timestamp": "2025-10-11T09:27:32.416956"
  },
  {
    "id": 175181201,
    "name": "Leo's Pizzeria",
    "cuisine": "pizza",
    "lat": 42.7645832,
    "lon": -78.633088,
    "wheelchair": null,
    "diet_vegan": null,
    "addr_city": "East Aurora",
    "timestamp": "2025-10-11T09:27:32.416958"
  },
  {
    "id": 265837183,
    "name": "Allen Street Hardware",
    "cuisine": null,
    "lat": 42.8996791,
    "lon": -78.8792223,
    "wheelchair": null,
    "diet_vegan": null,
    "addr_city": "New York",
    "timestamp": "2025-10-11T09:27:32.416960"
  },
  {
    "id": 265837194,
    "name": "El Coquito",
    "cuisine": "pizza",
    "lat": 42.8993775,
    "lon": -78.8790159,
    "wheelchair": null,
    "diet_vegan": null,
    "addr_city": "Buffalo",
    "timestamp": "2025-10-11T09:27:32.416962"
  },
  {
    "id": 265837267,
    "name": "Falley Allen",
    "cuisine": null,
    "lat": 42.8993307,
    "lon": -78.8776432,
    "wheelchair": null,
    "diet_vegan": null,
    "addr_city": "New York",
    "timestamp": "2025-10-11T09:27:32.416964"
  },
  {
    "id": 266027751,
    "name": "Betty's",
    "cuisine": null,
    "lat": 42.8967153,
    "lon": -78.878722,
    "wheelchair": null,
    "diet_vegan": null,
    "addr_city": "New York",
    "timestamp": "2025-10-11T09:27:32.416965"
  },
  {
    "id": 266031417,
    "name": "Fat Bob's Smoke House",
    "cuisine": "meat;bistro;american",
    "lat": 42.8978911,
    "lon": -78.8733661,
    "wheelchair": "yes",
    "diet_vegan": null,
    "addr_city": "New York",
    "timestamp": "2025-10-11T09:27:32.416967"
  },
  {
    "id": 266031460,
    "name": "Mother's",
    "cuisine": null,
    "lat": 42.8976521,
    "lon": -78.8733404,
    "wheelchair": null,
    "diet_vegan": null,
    "addr_city": "New York",
    "timestamp": "2025-10-11T09:27:32.416969"
  },
  {
    "id": 266032558,
    "name": "Taqueria Ranchos Dos",
    "cuisine": "mexican",
    "lat": 42.8963191,
    "lon": -78.8746278,
    "wheelchair": null,
    "diet_vegan": null,
    "addr_city": "New York",
    "timestamp": "2025-10-11T09:27:32.416971"
  },
  {
    "id": 266033263,
    "name": "Gabriel's Gate",
    "cuisine": null,
    "lat": 42.8996579,
    "lon": -78.8754776,
    "wheelchair": null,
    "diet_vegan": null,
    "addr_city": "New York",
    "timestamp": "2025-10-11T09:27:32.416973"
  },
  {
    "id": 289981842,
    "name": "Charlie's Boat Yard",
    "cuisine": null,
    "lat": 42.8510184,
    "lon": -78.864378,
    "wheelchair": null,
    "diet_vegan": null,
    "addr_city": "Buffalo",
    "timestamp": "2025-10-11T09:27:32.416975"
  },
  {
    "id": 347406524,
    "name": "Chili's",
    "cuisine": "tex-mex",
    "lat": 41.6271056,
    "lon": -73.9160936,
    "wheelchair": null,
    "diet_vegan": null,
    "addr_city": "New York",
    "timestamp": "2025-10-11T09:27:32.416976"
  },
  {
    "id": 354782210,
    "name": "Pizza Hut",
    "cuisine": "pizza",
    "lat": 44.5979018,
    "lon": -75.147601,
    "wheelchair": null,
    "diet_vegan": null,
    "addr_city": "Canton",
    "timestamp": "2025-10-11T09:27:32.416979"
  },
  {
    "id": 354789078,
    "name": "A-1 Oriental Kitchen",
    "cuisine": "chinese",
    "lat": 44.5956339,
    "lon": -75.1713012,
    "wheelchair": null,
    "diet_vegan": null,
    "addr_city": "New York",
    "timestamp": "2025-10-11T09:27:32.416980"
  },
  {
    "id": 354789093,
    "name": "Sergi's",
    "cuisine": "pizza",
    "lat": 44.5955859,
    "lon": -75.1719736,
    "wheelchair": null,
    "diet_vegan": null,
    "addr_city": "New York",
    "timestamp": "2025-10-11T09:27:32.416982"
  },
  {
    "id": 354793309,
    "name": "Silver Cent Diner",
    "cuisine": "regional",
    "lat": 44.4571482,
    "lon": -75.3556509,
    "wheelchair": null,
    "diet_vegan": null,
    "addr_city": "New York",
    "timestamp": "2025-10-11T09:27:32.416984"
  },
  {
    "id": 354793321,
    "name": "Casablanca Restaurant",
    "cuisine": "regional",
    "lat": 44.3410411,
    "lon": -75.4533859,
    "wheelchair": null,
    "diet_vegan": null,
    "addr_city": "New York",
    "timestamp": "2025-10-11T09:27:32.416986"
  },
  {
    "id": 357618253,
    "name": "Hooters",
    "cuisine": "burger",
    "lat": 40.7408217,
    "lon": -73.784295,
    "wheelchair": null,
    "diet_vegan": null,
    "addr_city": "Fresh Meadows",
    "timestamp": "2025-10-11T09:27:32.416988"
  },
  {
    "id": 357620442,
    "name": "Sam Sunny",
    "cuisine": "korean",
    "lat": 40.7415576,
    "lon": -73.9784628,
    "wheelchair": null,
    "diet_vegan": null,
    "addr_city": "New York",
    "timestamp": "2025-10-11T09:27:32.416989"
  },
  {
    "id": 358133743,
    "name": "Denny's",
    "cuisine": "american",
    "lat": 43.0012772,
    "lon": -78.4073048,
    "wheelchair": null,
    "diet_vegan": null,
    "addr_city": "Corfu",
    "timestamp": "2025-10-11T09:27:32.416991"
  },
  {
    "id": 359936574,
    "name": "Cloudspin Lounge and Deli",
    "cuisine": "regional",
    "lat": 44.3538598,
    "lon": -73.8619522,
    "wheelchair": null,
    "diet_vegan": null,
    "addr_city": "New York",
    "timestamp": "2025-10-11T09:27:32.416993"
  },
  {
    "id": 359936609,
    "name": "Lookout Cafe",
    "cuisine": "regional",
    "lat": 44.3537584,
    "lon": -73.8618935,
    "wheelchair": null,
    "diet_vegan": null,
    "addr_city": "New York",
    "timestamp": "2025-10-11T09:27:32.416995"
  },
  {
    "id": 359936617,
    "name": "Base Lodge Food Court",
    "cuisine": "regional",
    "lat": 44.3538705,
    "lon": -73.8618135,
    "wheelchair": null,
    "diet_vegan": null,
    "addr_city": "New York",
    "timestamp": "2025-10-11T09:27:32.416997"
  },
  {
    "id": 361159345,
    "name": "Red Lobster",
    "cuisine": "seafood",
    "lat": 43.2049644,
    "lon": -77.6680789,
    "wheelchair": null,
    "diet_vegan": null,
    "addr_city": "Rochester",
    "timestamp": "2025-10-11T09:27:32.416999"
  },
  {
    "id": 362003229,
    "name": "Nin's Restaurant",
    "cuisine": null,
    "lat": 44.8049104,
    "lon": -74.9816841,
    "wheelchair": null,
    "diet_vegan": null,
    "addr_city": "New York",
    "timestamp": "2025-10-11T09:27:32.417001"
  },
  {
    "id": 362577542,
    "name": "Mount Fuji",
    "cuisine": null,
    "lat": 41.1286629,
    "lon": -74.1687246,
    "wheelchair": null,
    "diet_vegan": null,
    "addr_city": "New York",
    "timestamp": "2025-10-11T09:27:32.417003"
  },
  {
    "id": 365786280,
    "name": "Greg's Italian-American Restaurant",
    "cuisine": "italian",
    "lat": 44.3372415,
    "lon": -75.4627839,
    "wheelchair": null,
    "diet_vegan": null,
    "addr_city": "New York",
    "timestamp": "2025-10-11T09:27:32.417004"
  },
  {
    "id": 368054752,
    "name": null,
    "cuisine": null,
    "lat": 40.7165746,
    "lon": -73.5992644,
    "wheelchair": null,
    "diet_vegan": null,
    "addr_city": "New York",
    "timestamp": "2025-10-11T09:27:32.417006"
  },
  {
    "id": 370696693,
    "name": null,
    "cuisine": null,
    "lat": 42.6494573,
    "lon": -73.7532592,
    "wheelchair": null,
    "diet_vegan": null,
    "addr_city": "Albany",
    "timestamp": "2025-10-11T09:27:32.417008"
  },
  {
    "id": 370711282,
    "name": "La Bella Pizza & Restaurant",
    "cuisine": "italian",
    "lat": 42.6946668,
    "lon": -73.6372185,
    "wheelchair": null,
    "diet_vegan": null,
    "addr_city": "Wynantskill",
    "timestamp": "2025-10-11T09:27:32.417009"
  },
  {
    "id": 370957342,
    "name": "Old Daley Inn on Crooked Lake",
    "cuisine": null,
    "lat": 42.6076897,
    "lon": -73.5219884,
    "wheelchair": null,
    "diet_vegan": null,
    "addr_city": "New York",
    "timestamp": "2025-10-11T09:27:32.417011"
  },
  {
    "id": 373062445,
    "name": "Chez Mikes",
    "cuisine": null,
    "lat": 42.5975949,
    "lon": -73.711793,
    "wheelchair": null,
    "diet_vegan": null,
    "addr_city": "New York",
    "timestamp": "2025-10-11T09:27:32.417013"
  },
  {
    "id": 373510700,
    "name": "Garlic Lover's Corner",
    "cuisine": null,
    "lat": 42.68216,
    "lon": -73.688714,
    "wheelchair": null,
    "diet_vegan": null,
    "addr_city": "New York",
    "timestamp": "2025-10-11T09:27:32.417015"
  },
  {
    "id": 373510704,
    "name": "I Love NY Pizza of Route 4",
    "cuisine": "pizza",
    "lat": 42.6820075,
    "lon": -73.6887627,
    "wheelchair": null,
    "diet_vegan": null,
    "addr_city": "New York",
    "timestamp": "2025-10-11T09:27:32.417018"
  },
  {
    "id": 373513181,
    "name": "Zenbu Chinese Restaurant",
    "cuisine": "chinese",
    "lat": 42.661357,
    "lon": -73.6915008,
    "wheelchair": null,
    "diet_vegan": null,
    "addr_city": "Rensselaer",
    "timestamp": "2025-10-11T09:27:32.417020"
  },
  {
    "id": 379522070,
    "name": "Pastabilities",
    "cuisine": "pasta;italian;chicken;cake;fish;seafood;salad",
    "lat": 43.0483095,
    "lon": -76.155389,
    "wheelchair": null,
    "diet_vegan": "yes",
    "addr_city": "Syracuse",
    "timestamp": "2025-10-11T09:27:32.417025"
  },
  {
    "id": 379522094,
    "name": "Bistro Elephant",
    "cuisine": "steak_house",
    "lat": 43.0476085,
    "lon": -76.154538,
    "wheelchair": null,
    "diet_vegan": null,
    "addr_city": "Syracuse",
    "timestamp": "2025-10-11T09:27:32.417027"
  },
  {
    "id": 380044344,
    "name": "Pedro's",
    "cuisine": "mexican;burrito;tacos;nachos;enchilada",
    "lat": 40.7025316,
    "lon": -73.9865653,
    "wheelchair": "no",
    "diet_vegan": "yes",
    "addr_city": "Brooklyn",
    "timestamp": "2025-10-11T09:27:32.417029"
  },
  {
    "id": 386608324,
    "name": "Hot Harry's",
    "cuisine": "mexican",
    "lat": 42.5977109,
    "lon": -73.7119186,
    "wheelchair": null,
    "diet_vegan": null,
    "addr_city": "New York",
    "timestamp": "2025-10-11T09:27:32.417031"
  },
  {
    "id": 390620955,
    "name": "Hometown Diner",
    "cuisine": "diner",
    "lat": 42.6462271,
    "lon": -73.6071894,
    "wheelchair": null,
    "diet_vegan": null,
    "addr_city": "West Sand Lake",
    "timestamp": "2025-10-11T09:27:32.417032"
  },
  {
    "id": 390620958,
    "name": "Lee Sun Chinese Food",
    "cuisine": "chinese",
    "lat": 42.6460311,
    "lon": -73.6057329,
    "wheelchair": null,
    "diet_vegan": null,
    "addr_city": "West Sand Lake",
    "timestamp": "2025-10-11T09:27:32.417034"
  },
  {
    "id": 390620959,
    "name": "Michael's Lounge",
    "cuisine": null,
    "lat": 42.6459918,
    "lon": -73.6054171,
    "wheelchair": null,
    "diet_vegan": null,
    "addr_city": "West Sand Lake",
    "timestamp": "2025-10-11T09:27:32.417036"
  },
  {
    "id": 410235438,
    "name": "Trudy's Ice Cream",
    "cuisine": "dessert",
    "lat": 40.8003773,
    "lon": -73.9618056,
    "wheelchair": null,
    "diet_vegan": null,
    "addr_city": "New York",
    "timestamp": "2025-10-11T09:27:32.417037"
  },
  {
    "id": 411504676,
    "name": "Angelina's",
    "cuisine": "italian",
    "lat": 40.5134027,
    "lon": -74.2513558,
    "wheelchair": "no",
    "diet_vegan": null,
    "addr_city": "Staten Island",
    "timestamp": "2025-10-11T09:27:32.417039"
  },
  {
    "id": 412216583,
    "name": "Pizza Hut",
    "cuisine": "pizza",
    "lat": 41.5267802,
    "lon": -74.0342905,
    "wheelchair": null,
    "diet_vegan": null,
    "addr_city": "Newburgh",
    "timestamp": "2025-10-11T09:27:32.417040"
  },
  {
    "id": 418524116,
    "name": "Talay Thai Restaurant",
    "cuisine": "thai",
    "lat": 40.6424804,
    "lon": -74.0766747,
    "wheelchair": "yes",
    "diet_vegan": "yes",
    "addr_city": "New York",
    "timestamp": "2025-10-11T09:27:32.417042"
  },
  {
    "id": 419359942,
    "name": "Boutros",
    "cuisine": "middle_eastern;american;brunch",
    "lat": 40.6901687,
    "lon": -73.9934852,
    "wheelchair": null,
    "diet_vegan": null,
    "addr_city": "New York",
    "timestamp": "2025-10-11T09:27:32.417044"
  },
  {
    "id": 419359956,
    "name": "Bubo",
    "cuisine": "mediterranean;american",
    "lat": 40.7460362,
    "lon": -73.9776676,
    "wheelchair": "yes",
    "diet_vegan": null,
    "addr_city": "New York",
    "timestamp": "2025-10-11T09:27:32.417045"
  },
  {
    "id": 419359995,
    "name": "Little Alley",
    "cuisine": "chinese;shanghai",
    "lat": 40.7473845,
    "lon": -73.9771526,
    "wheelchair": null,
    "diet_vegan": null,
    "addr_city": "New York",
    "timestamp": "2025-10-11T09:27:32.417047"
  },
  {
    "id": 419361808,
    "name": "Mikado",
    "cuisine": "sushi",
    "lat": 40.6902604,
    "lon": -73.9938187,
    "wheelchair": null,
    "diet_vegan": null,
    "addr_city": "Brooklyn",
    "timestamp": "2025-10-11T09:27:32.417049"
  },
  {
    "id": 419362699,
    "name": "The Musket Room",
    "cuisine": "continental;eclectic",
    "lat": 40.7239188,
    "lon": -73.9937813,
    "wheelchair": null,
    "diet_vegan": "yes",
    "addr_city": "New York",
    "timestamp": "2025-10-11T09:27:32.417051"
  },
  {
    "id": 419367357,
    "name": "Nha Trang One",
    "cuisine": "vietnamese",
    "lat": 40.7167899,
    "lon": -73.9996711,
    "wheelchair": null,
    "diet_vegan": null,
    "addr_city": "New York",
    "timestamp": "2025-10-11T09:27:32.417053"
  },
  {
    "id": 419367625,
    "name": "Mi",
    "cuisine": "chinese",
    "lat": 40.7461325,
    "lon": -73.9775916,
    "wheelchair": "yes",
    "diet_vegan": null,
    "addr_city": "New York",
    "timestamp": "2025-10-11T09:27:32.417059"
  },
  {
    "id": 438960900,
    "name": "Roam Cafe",
    "cuisine": "coffee_shop",
    "lat": 43.1504903,
    "lon": -77.5892055,
    "wheelchair": null,
    "diet_vegan": null,
    "addr_city": "Rochester",
    "timestamp": "2025-10-11T09:27:32.417061"
  },
  {
    "id": 442342239,
    "name": "Nanuet Diner",
    "cuisine": null,
    "lat": 41.0987185,
    "lon": -74.0162547,
    "wheelchair": null,
    "diet_vegan": null,
    "addr_city": "Nanuet",
    "timestamp": "2025-10-11T09:27:32.417063"
  },
  {
    "id": 451588366,
    "name": "Dragon Buffet",
    "cuisine": "chinese;buffet",
    "lat": 42.7344918,
    "lon": -73.8515892,
    "wheelchair": "yes",
    "diet_vegan": null,
    "addr_city": "New York",
    "timestamp": "2025-10-11T09:27:32.417065"
  },
  {
    "id": 460482199,
    "name": "Zum Stammtisch",
    "cuisine": "german",
    "lat": 40.7018175,
    "lon": -73.8811268,
    "wheelchair": null,
    "diet_vegan": null,
    "addr_city": "Glendale",
    "timestamp": "2025-10-11T09:27:32.417067"
  },
  {
    "id": 469831275,
    "name": "O'Donoghue's Tavern",
    "cuisine": null,
    "lat": 41.0909754,
    "lon": -73.9177424,
    "wheelchair": null,
    "diet_vegan": null,
    "addr_city": "New York",
    "timestamp": "2025-10-11T09:27:32.417068"
  },
  {
    "id": 499640745,
    "name": "Royal of India",
    "cuisine": "indian",
    "lat": 43.0921966,
    "lon": -77.6563204,
    "wheelchair": null,
    "diet_vegan": null,
    "addr_city": "Rochester",
    "timestamp": "2025-10-11T09:27:32.417070"
  },
  {
    "id": 502789467,
    "name": "Lake Pavilion",
    "cuisine": "Cantonese;chinese",
    "lat": 40.7426161,
    "lon": -73.8248756,
    "wheelchair": null,
    "diet_vegan": null,
    "addr_city": "New York",
    "timestamp": "2025-10-11T09:27:32.417072"
  },
  {
    "id": 502789797,
    "name": "Happy Garden Restaurant",
    "cuisine": null,
    "lat": 40.7430063,
    "lon": -73.825794,
    "wheelchair": null,
    "diet_vegan": null,
    "addr_city": "New York",
    "timestamp": "2025-10-11T09:27:32.417073"
  },
  {
    "id": 518273328,
    "name": "Sabad's Restaurant",
    "cuisine": "hungarian",
    "lat": 44.8021066,
    "lon": -74.9977295,
    "wheelchair": null,
    "diet_vegan": null,
    "addr_city": "New York",
    "timestamp": "2025-10-11T09:27:32.417075"
  },
  {
    "id": 524691386,
    "name": "Mugs Ale House",
    "cuisine": null,
    "lat": 40.7194991,
    "lon": -73.9557619,
    "wheelchair": null,
    "diet_vegan": null,
    "addr_city": "Brooklyn",
    "timestamp": "2025-10-11T09:27:32.417077"
  },
  {
    "id": 527741538,
    "name": "Mr. Mike's Pizza",
    "cuisine": "pizza",
    "lat": 44.2807261,
    "lon": -73.9815468,
    "wheelchair": null,
    "diet_vegan": null,
    "addr_city": "New York",
    "timestamp": "2025-10-11T09:27:32.417079"
  },
  {
    "id": 530772243,
    "name": "The Point Cafe",
    "cuisine": null,
    "lat": 42.7956775,
    "lon": -73.9623528,
    "wheelchair": null,
    "diet_vegan": null,
    "addr_city": "New York",
    "timestamp": "2025-10-11T09:27:32.417080"
  },
  {
    "id": 540476943,
    "name": "Stewart Airport Diner",
    "cuisine": null,
    "lat": 41.5222822,
    "lon": -74.1119413,
    "wheelchair": null,
    "diet_vegan": null,
    "addr_city": "New York",
    "timestamp": "2025-10-11T09:27:32.417082"
  },
  {
    "id": 540477015,
    "name": "Union Square Restaurant",
    "cuisine": null,
    "lat": 41.5050386,
    "lon": -74.0737295,
    "wheelchair": null,
    "diet_vegan": null,
    "addr_city": "New York",
    "timestamp": "2025-10-11T09:27:32.417083"
  },
  {
    "id": 540479184,
    "name": "Johnny's Pizzeria",
    "cuisine": "pizza",
    "lat": 41.5258248,
    "lon": -74.1347095,
    "wheelchair": null,
    "diet_vegan": null,
    "addr_city": "New York",
    "timestamp": "2025-10-11T09:27:32.417086"
  },
  {
    "id": 540495708,
    "name": "GlassMarket Cafe",
    "cuisine": null,
    "lat": 42.1496754,
    "lon": -77.053812,
    "wheelchair": null,
    "diet_vegan": null,
    "addr_city": "New York",
    "timestamp": "2025-10-11T09:27:32.417087"
  },
  {
    "id": 540504692,
    "name": null,
    "cuisine": null,
    "lat": 42.1422552,
    "lon": -77.049263,
    "wheelchair": null,
    "diet_vegan": null,
    "addr_city": "New York",
    "timestamp": "2025-10-11T09:27:32.417089"
  },
  {
    "id": 557126904,
    "name": "Red Robin",
    "cuisine": "burger",
    "lat": 41.6596465,
    "lon": -73.9309591,
    "wheelchair": null,
    "diet_vegan": null,
    "addr_city": "New York",
    "timestamp": "2025-10-11T09:27:32.417090"
  },
  {
    "id": 558646775,
    "name": "Goshen Diner",
    "cuisine": null,
    "lat": 41.3965328,
    "lon": -74.3326214,
    "wheelchair": null,
    "diet_vegan": null,
    "addr_city": "New York",
    "timestamp": "2025-10-11T09:27:32.417092"
  },
  {
    "id": 558677810,
    "name": "Planet Wings",
    "cuisine": null,
    "lat": 41.4632752,
    "lon": -74.0513208,
    "wheelchair": null,
    "diet_vegan": null,
    "addr_city": "New York",
    "timestamp": "2025-10-11T09:27:32.417093"
  },
  {
    "id": 566203657,
    "name": null,
    "cuisine": null,
    "lat": 42.7006822,
    "lon": -74.0333001,
    "wheelchair": null,
    "diet_vegan": null,
    "addr_city": "Altamont",
    "timestamp": "2025-10-11T09:27:32.417097"
  },
  {
    "id": 566313758,
    "name": "The Inwood Farm",
    "cuisine": "american",
    "lat": 40.8727992,
    "lon": -73.918421,
    "wheelchair": "yes",
    "diet_vegan": "yes",
    "addr_city": "New York",
    "timestamp": "2025-10-11T09:27:32.417102"
  },
  {
    "id": 566316071,
    "name": "Garden Caf\u00e9",
    "cuisine": null,
    "lat": 40.8681188,
    "lon": -73.9204207,
    "wheelchair": "limited",
    "diet_vegan": null,
    "addr_city": "New York",
    "timestamp": "2025-10-11T09:27:32.417104"
  },
  {
    "id": 567711602,
    "name": "Bflo Pizza Bistro",
    "cuisine": "pizza",
    "lat": 42.9030656,
    "lon": -78.8882571,
    "wheelchair": null,
    "diet_vegan": null,
    "addr_city": "Buffalo",
    "timestamp": "2025-10-11T09:27:32.417105"
  },
  {
    "id": 570912397,
    "name": "Le Monde",
    "cuisine": "french;loire_valley",
    "lat": 40.8057782,
    "lon": -73.9658657,
    "wheelchair": null,
    "diet_vegan": null,
    "addr_city": "New York",
    "timestamp": "2025-10-11T09:27:32.417107"
  },
  {
    "id": 571116648,
    "name": "Hancock House",
    "cuisine": null,
    "lat": 41.954288,
    "lon": -75.2792554,
    "wheelchair": null,
    "diet_vegan": null,
    "addr_city": "New York",
    "timestamp": "2025-10-11T09:27:32.417108"
  },
  {
    "id": 587983083,
    "name": "Leo's Italian Restaurant & Pizzaria",
    "cuisine": "pizza",
    "lat": 41.5240683,
    "lon": -74.0712056,
    "wheelchair": null,
    "diet_vegan": null,
    "addr_city": "Newburgh",
    "timestamp": "2025-10-11T09:27:32.417110"
  },
  {
    "id": 612024053,
    "name": "Soy",
    "cuisine": "japanese",
    "lat": 41.8439645,
    "lon": -74.0827286,
    "wheelchair": null,
    "diet_vegan": null,
    "addr_city": "New York",
    "timestamp": "2025-10-11T09:27:32.417112"
  },
  {
    "id": 616949635,
    "name": "Phillips European Restaurant",
    "cuisine": "european",
    "lat": 43.1065551,
    "lon": -77.6183735,
    "wheelchair": null,
    "diet_vegan": null,
    "addr_city": "Rochester",
    "timestamp": "2025-10-11T09:27:32.417114"
  },
  {
    "id": 616949637,
    "name": "Delmonico's Italian Steakhouse",
    "cuisine": "italian",
    "lat": 43.1053548,
    "lon": -77.6172225,
    "wheelchair": null,
    "diet_vegan": null,
    "addr_city": "New York",
    "timestamp": "2025-10-11T09:27:32.417115"
  },
  {
    "id": 616949638,
    "name": "TGI Fridays",
    "cuisine": "american",
    "lat": 43.1050094,
    "lon": -77.6167795,
    "wheelchair": null,
    "diet_vegan": null,
    "addr_city": "New York",
    "timestamp": "2025-10-11T09:27:32.417117"
  },
  {
    "id": 617740844,
    "name": "Carmine's Pizzeria",
    "cuisine": "pizza",
    "lat": 40.714968,
    "lon": -73.9443016,
    "wheelchair": null,
    "diet_vegan": null,
    "addr_city": "New York",
    "timestamp": "2025-10-11T09:27:32.417118"
  },
  {
    "id": 617740846,
    "name": "El Loco Burrito",
    "cuisine": "mexican",
    "lat": 40.7148102,
    "lon": -73.9445968,
    "wheelchair": null,
    "diet_vegan": null,
    "addr_city": "New York",
    "timestamp": "2025-10-11T09:27:32.417120"
  },
  {
    "id": 617740847,
    "name": "Tony's Pizza",
    "cuisine": "pizza",
    "lat": 40.7150542,
    "lon": -73.9446372,
    "wheelchair": null,
    "diet_vegan": null,
    "addr_city": "New York",
    "timestamp": "2025-10-11T09:27:32.417121"
  },
  {
    "id": 617741150,
    "name": "East Met West",
    "cuisine": "chinese",
    "lat": 40.714447,
    "lon": -73.9439212,
    "wheelchair": "yes",
    "diet_vegan": null,
    "addr_city": "New York",
    "timestamp": "2025-10-11T09:27:32.417123"
  },
  {
    "id": 617741196,
    "name": "Il Passatore",
    "cuisine": null,
    "lat": 40.7143441,
    "lon": -73.9420637,
    "wheelchair": "yes",
    "diet_vegan": null,
    "addr_city": "New York",
    "timestamp": "2025-10-11T09:27:32.417127"
  },
  {
    "id": 629872702,
    "name": "Sarah James",
    "cuisine": null,
    "lat": 40.6932477,
    "lon": -73.9425684,
    "wheelchair": null,
    "diet_vegan": null,
    "addr_city": "Brooklyn",
    "timestamp": "2025-10-11T09:27:32.417128"
  },
  {
    "id": 631422025,
    "name": "Club House",
    "cuisine": null,
    "lat": 41.1402785,
    "lon": -73.9908116,
    "wheelchair": null,
    "diet_vegan": null,
    "addr_city": "New York",
    "timestamp": "2025-10-11T09:27:32.417130"
  },
  {
    "id": 643414350,
    "name": "Hard Rock Cafe",
    "cuisine": "american",
    "lat": 40.756994,
    "lon": -73.9865512,
    "wheelchair": "yes",
    "diet_vegan": null,
    "addr_city": "New York",
    "timestamp": "2025-10-11T09:27:32.417132"
  },
  {
    "id": 647184192,
    "name": "Plaza Pizzeria on Main",
    "cuisine": "pizza",
    "lat": 43.0126956,
    "lon": -78.8797429,
    "wheelchair": "no",
    "diet_vegan": null,
    "addr_city": "Tonawanda",
    "timestamp": "2025-10-11T09:27:32.417134"
  },
  {
    "id": 650904188,
    "name": "Salty's Pub",
    "cuisine": null,
    "lat": 42.8381413,
    "lon": -73.7384977,
    "wheelchair": null,
    "diet_vegan": null,
    "addr_city": "New York",
    "timestamp": "2025-10-11T09:27:32.417135"
  },
  {
    "id": 659542740,
    "name": "The Foundry Rose",
    "cuisine": null,
    "lat": 41.4172932,
    "lon": -73.9588387,
    "wheelchair": null,
    "diet_vegan": null,
    "addr_city": "New York",
    "timestamp": "2025-10-11T09:27:32.417137"
  },
  {
    "id": 661889865,
    "name": "Carbone",
    "cuisine": null,
    "lat": 40.7554192,
    "lon": -73.9930152,
    "wheelchair": null,
    "diet_vegan": null,
    "addr_city": "New York",
    "timestamp": "2025-10-11T09:27:32.417139"
  },
  {
    "id": 662433328,
    "name": "Freemans",
    "cuisine": "american",
    "lat": 40.7219891,
    "lon": -73.9924423,
    "wheelchair": null,
    "diet_vegan": null,
    "addr_city": "New York",
    "timestamp": "2025-10-11T09:27:32.417140"
  },
  {
    "id": 662435489,
    "name": "Aurora",
    "cuisine": "italian",
    "lat": 40.7156935,
    "lon": -73.9647329,
    "wheelchair": null,
    "diet_vegan": null,
    "addr_city": "Brooklyn",
    "timestamp": "2025-10-11T09:27:32.417142"
  },
  {
    "id": 663104998,
    "name": "Tick Tock Diner",
    "cuisine": "diner",
    "lat": 40.7524435,
    "lon": -73.9935503,
    "wheelchair": "no",
    "diet_vegan": null,
    "addr_city": "New York",
    "timestamp": "2025-10-11T09:27:32.417144"
  },
  {
    "id": 663354158,
    "name": "Giovanni",
    "cuisine": "italian",
    "lat": 40.779131,
    "lon": -73.960536,
    "wheelchair": null,
    "diet_vegan": null,
    "addr_city": "New York",
    "timestamp": "2025-10-11T09:27:32.417146"
  },
  {
    "id": 677185166,
    "name": "Bamboo Chinese Restaurant",
    "cuisine": "chinese",
    "lat": 42.7228452,
    "lon": -73.9361861,
    "wheelchair": null,
    "diet_vegan": null,
    "addr_city": "New York",
    "timestamp": "2025-10-11T09:27:32.417148"
  },
  {
    "id": 679495455,
    "name": "677 Prime",
    "cuisine": "steak_house",
    "lat": 42.6533342,
    "lon": -73.7486679,
    "wheelchair": null,
    "diet_vegan": null,
    "addr_city": "Albany",
    "timestamp": "2025-10-11T09:27:32.417149"
  },
  {
    "id": 679495456,
    "name": "Common Roots Albany Outpost",
    "cuisine": null,
    "lat": 42.6540692,
    "lon": -73.7477348,
    "wheelchair": null,
    "diet_vegan": null,
    "addr_city": "Albany",
    "timestamp": "2025-10-11T09:27:32.417151"
  },
  {
    "id": 679939508,
    "name": "Yono's",
    "cuisine": "indonesian",
    "lat": 42.6532897,
    "lon": -73.7516606,
    "wheelchair": null,
    "diet_vegan": null,
    "addr_city": "Albany",
    "timestamp": "2025-10-11T09:27:32.417153"
  },
  {
    "id": 680848564,
    "name": "Golden Phoenix",
    "cuisine": "asian",
    "lat": 43.0647069,
    "lon": -77.4136916,
    "wheelchair": null,
    "diet_vegan": null,
    "addr_city": "New York",
    "timestamp": "2025-10-11T09:27:32.417154"
  },
  {
    "id": 693891973,
    "name": "The Good Fork",
    "cuisine": "korean;american",
    "lat": 40.6759784,
    "lon": -74.0142976,
    "wheelchair": "no",
    "diet_vegan": null,
    "addr_city": "Brooklyn",
    "timestamp": "2025-10-11T09:27:32.417156"
  },
  {
    "id": 694004517,
    "name": null,
    "cuisine": null,
    "lat": 42.9750582,
    "lon": -73.8463183,
    "wheelchair": null,
    "diet_vegan": null,
    "addr_city": "New York",
    "timestamp": "2025-10-11T09:27:32.417160"
  },
  {
    "id": 697308182,
    "name": "Glen Sanders Mansion",
    "cuisine": null,
    "lat": 42.8222896,
    "lon": -73.9593924,
    "wheelchair": null,
    "diet_vegan": null,
    "addr_city": "Scotia",
    "timestamp": "2025-10-11T09:27:32.417162"
  },
  {
    "id": 697332036,
    "name": "De Marco's Restaurant",
    "cuisine": "italian",
    "lat": 42.7411876,
    "lon": -73.8593168,
    "wheelchair": null,
    "diet_vegan": null,
    "addr_city": "New York",
    "timestamp": "2025-10-11T09:27:32.417164"
  },
  {
    "id": 697332039,
    "name": "Farmer Boy Diner",
    "cuisine": "diner",
    "lat": 42.7425223,
    "lon": -73.8604683,
    "wheelchair": null,
    "diet_vegan": null,
    "addr_city": "Albany",
    "timestamp": "2025-10-11T09:27:32.417166"
  },
  {
    "id": 698000786,
    "name": "Pronto Pizzeria and Restaurant",
    "cuisine": "italian;pizza",
    "lat": 41.1929515,
    "lon": -73.8795178,
    "wheelchair": null,
    "diet_vegan": null,
    "addr_city": "Croton-on-Hudson",
    "timestamp": "2025-10-11T09:27:32.417168"
  },
  {
    "id": 702331964,
    "name": "Blue",
    "cuisine": "mediterranean;american",
    "lat": 40.6453855,
    "lon": -74.1077517,
    "wheelchair": null,
    "diet_vegan": null,
    "addr_city": "Staten Island",
    "timestamp": "2025-10-11T09:27:32.417170"
  },
  {
    "id": 703716912,
    "name": "Union St Seagoo",
    "cuisine": "chicken;seafood",
    "lat": 42.8040938,
    "lon": -73.9036071,
    "wheelchair": null,
    "diet_vegan": null,
    "addr_city": "Schenectady",
    "timestamp": "2025-10-11T09:27:32.417171"
  },
  {
    "id": 703719932,
    "name": "Crossgates Restaurant and Banquet House",
    "cuisine": null,
    "lat": 42.7016954,
    "lon": -73.8502478,
    "wheelchair": null,
    "diet_vegan": null,
    "addr_city": "Albany",
    "timestamp": "2025-10-11T09:27:32.417173"
  },
  {
    "id": 703719939,
    "name": "Italian American Community Center",
    "cuisine": null,
    "lat": 42.7063338,
    "lon": -73.8589999,
    "wheelchair": "yes",
    "diet_vegan": null,
    "addr_city": "New York",
    "timestamp": "2025-10-11T09:27:32.417175"
  },
  {
    "id": 709064601,
    "name": "Fireside Pizza Den",
    "cuisine": "pizza",
    "lat": 42.4527282,
    "lon": -73.6943127,
    "wheelchair": null,
    "diet_vegan": null,
    "addr_city": "New York",
    "timestamp": "2025-10-11T09:27:32.417176"
  },
  {
    "id": 709205399,
    "name": "The Pond Restaurant",
    "cuisine": null,
    "lat": 42.0577337,
    "lon": -73.5662121,
    "wheelchair": null,
    "diet_vegan": null,
    "addr_city": "New York",
    "timestamp": "2025-10-11T09:27:32.417178"
  },
  {
    "id": 709205410,
    "name": "Big Grill Restaurant",
    "cuisine": null,
    "lat": 41.9534952,
    "lon": -73.5134736,
    "wheelchair": null,
    "diet_vegan": null,
    "addr_city": "New York",
    "timestamp": "2025-10-11T09:27:32.417179"
  },
  {
    "id": 709226668,
    "name": "Washington House",
    "cuisine": null,
    "lat": 42.1793884,
    "lon": -73.5259086,
    "wheelchair": null,
    "diet_vegan": null,
    "addr_city": "New York",
    "timestamp": "2025-10-11T09:27:32.417181"
  },
  {
    "id": 709226669,
    "name": "Hillsdale House",
    "cuisine": null,
    "lat": 42.1789805,
    "lon": -73.5254406,
    "wheelchair": null,
    "diet_vegan": null,
    "addr_city": "New York",
    "timestamp": "2025-10-11T09:27:32.417182"
  },
  {
    "id": 709226676,
    "name": "Zinnia's Dinette",
    "cuisine": null,
    "lat": 42.1760911,
    "lon": -73.5770371,
    "wheelchair": null,
    "diet_vegan": null,
    "addr_city": "New York",
    "timestamp": "2025-10-11T09:27:32.417184"
  },
  {
    "id": 709247667,
    "name": "Vanderbilt House",
    "cuisine": null,
    "lat": 42.2504136,
    "lon": -73.6442881,
    "wheelchair": null,
    "diet_vegan": null,
    "addr_city": "New York",
    "timestamp": "2025-10-11T09:27:32.417185"
  },
  {
    "id": 709311091,
    "name": "White Stone Cafe",
    "cuisine": null,
    "lat": 42.3306009,
    "lon": -73.6132761,
    "wheelchair": null,
    "diet_vegan": null,
    "addr_city": "New York",
    "timestamp": "2025-10-11T09:27:32.417187"
  },
  {
    "id": 710883901,
    "name": "Jackson's Old Chatham House",
    "cuisine": null,
    "lat": 42.4411291,
    "lon": -73.5624095,
    "wheelchair": null,
    "diet_vegan": null,
    "addr_city": "New York",
    "timestamp": "2025-10-11T09:27:32.417189"
  },
  {
    "id": 712636527,
    "name": "West Wok",
    "cuisine": "chinese",
    "lat": 42.601016,
    "lon": -73.7954338,
    "wheelchair": null,
    "diet_vegan": null,
    "addr_city": "New York",
    "timestamp": "2025-10-11T09:27:32.417190"
  },
  {
    "id": 712636540,
    "name": "Akira",
    "cuisine": "japanese",
    "lat": 42.6034365,
    "lon": -73.7917129,
    "wheelchair": null,
    "diet_vegan": null,
    "addr_city": "New York",
    "timestamp": "2025-10-11T09:27:32.417192"
  },
  {
    "id": 712659148,
    "name": "Silver Spoon Cafe",
    "cuisine": null,
    "lat": 42.4721188,
    "lon": -73.8172038,
    "wheelchair": null,
    "diet_vegan": null,
    "addr_city": "New York",
    "timestamp": "2025-10-11T09:27:32.417194"
  },
  {
    "id": 714251659,
    "name": "Sushi King",
    "cuisine": null,
    "lat": 42.7317237,
    "lon": -73.691337,
    "wheelchair": null,
    "diet_vegan": null,
    "addr_city": "New York",
    "timestamp": "2025-10-11T09:27:32.417196"
  },
  {
    "id": 715488141,
    "name": "La Perla Restaurante",
    "cuisine": "italian",
    "lat": 42.6343212,
    "lon": -73.552989,
    "wheelchair": null,
    "diet_vegan": null,
    "addr_city": "Averill Park",
    "timestamp": "2025-10-11T09:27:32.417197"
  },
  {
    "id": 716030424,
    "name": "Piato Greek Kitchen",
    "cuisine": "greek",
    "lat": 41.2017286,
    "lon": -73.8863269,
    "wheelchair": null,
    "diet_vegan": null,
    "addr_city": "Croton-on-Hudson",
    "timestamp": "2025-10-11T09:27:32.417199"
  },
  {
    "id": 720077606,
    "name": "JayCee's Pizza Depot",
    "cuisine": "pizza",
    "lat": 42.6547993,
    "lon": -73.9293108,
    "wheelchair": null,
    "diet_vegan": null,
    "addr_city": "New York",
    "timestamp": "2025-10-11T09:27:32.417200"
  },
  {
    "id": 721432666,
    "name": "Paisano's Pizza Villa",
    "cuisine": "pizza",
    "lat": 42.7005547,
    "lon": -74.0335386,
    "wheelchair": null,
    "diet_vegan": null,
    "addr_city": "Altamont",
    "timestamp": "2025-10-11T09:27:32.417202"
  },
  {
    "id": 721432671,
    "name": "Bamboo Garden",
    "cuisine": "chinese",
    "lat": 42.7006567,
    "lon": -74.0333751,
    "wheelchair": null,
    "diet_vegan": null,
    "addr_city": "Altamont",
    "timestamp": "2025-10-11T09:27:32.417204"
  },
  {
    "id": 721432674,
    "name": "Highlands Restaurant & Lounge",
    "cuisine": null,
    "lat": 42.6785092,
    "lon": -74.0775006,
    "wheelchair": null,
    "diet_vegan": null,
    "addr_city": "New York",
    "timestamp": "2025-10-11T09:27:32.417205"
  },
  {
    "id": 721467266,
    "name": "Unos",
    "cuisine": "pizza",
    "lat": 42.6896502,
    "lon": -73.8495722,
    "wheelchair": null,
    "diet_vegan": null,
    "addr_city": "Albany",
    "timestamp": "2025-10-11T09:27:32.417207"
  },
  {
    "id": 721467281,
    "name": "Ruby Tuesday",
    "cuisine": "american",
    "lat": 42.6890931,
    "lon": -73.850425,
    "wheelchair": null,
    "diet_vegan": null,
    "addr_city": "Albany",
    "timestamp": "2025-10-11T09:27:32.417208"
  },
  {
    "id": 721467358,
    "name": "The Melting Pot",
    "cuisine": "fondue",
    "lat": 42.6892477,
    "lon": -73.8508756,
    "wheelchair": null,
    "diet_vegan": null,
    "addr_city": "Albany",
    "timestamp": "2025-10-11T09:27:32.417210"
  },
  {
    "id": 721629785,
    "name": "Johnny Rockets",
    "cuisine": "burger",
    "lat": 42.6903291,
    "lon": -73.8527428,
    "wheelchair": null,
    "diet_vegan": null,
    "addr_city": "Albany",
    "timestamp": "2025-10-11T09:27:32.417212"
  },
  {
    "id": 723133822,
    "name": "Township Tavern",
    "cuisine": null,
    "lat": 42.7004096,
    "lon": -74.1024208,
    "wheelchair": null,
    "diet_vegan": null,
    "addr_city": "New York",
    "timestamp": "2025-10-11T09:27:32.417213"
  },
  {
    "id": 727740768,
    "name": "Okinawa",
    "cuisine": null,
    "lat": 42.6979253,
    "lon": -73.6471263,
    "wheelchair": null,
    "diet_vegan": null,
    "addr_city": "New York",
    "timestamp": "2025-10-11T09:27:32.417215"
  },
  {
    "id": 732372474,
    "name": "Vinegar Hill House",
    "cuisine": "american",
    "lat": 40.7027578,
    "lon": -73.9812369,
    "wheelchair": null,
    "diet_vegan": null,
    "addr_city": "Brooklyn",
    "timestamp": "2025-10-11T09:27:32.417217"
  },
  {
    "id": 736739187,
    "name": "Dan's Diner & Quick Lunch",
    "cuisine": "diner",
    "lat": 42.3330175,
    "lon": -73.5553256,
    "wheelchair": null,
    "diet_vegan": null,
    "addr_city": "New York",
    "timestamp": "2025-10-11T09:27:32.417218"
  },
  {
    "id": 747635039,
    "name": "Celadon Thai Bistro",
    "cuisine": "thai",
    "lat": 42.8247898,
    "lon": -73.9112285,
    "wheelchair": null,
    "diet_vegan": null,
    "addr_city": "Schenectady",
    "timestamp": "2025-10-11T09:27:32.417220"
  },
  {
    "id": 750045925,
    "name": "Ginza Japanese & Korean Restaurant",
    "cuisine": "japanese",
    "lat": 42.7587958,
    "lon": -73.7671656,
    "wheelchair": null,
    "diet_vegan": null,
    "addr_city": "New York",
    "timestamp": "2025-10-11T09:27:32.417221"
  },
  {
    "id": 753648585,
    "name": "Shogun Sushi Sake Bar",
    "cuisine": "sushi",
    "lat": 42.6234422,
    "lon": -73.8285433,
    "wheelchair": null,
    "diet_vegan": null,
    "addr_city": "New York",
    "timestamp": "2025-10-11T09:27:32.417223"
  },
  {
    "id": 761470532,
    "name": "Hideaway Hotel",
    "cuisine": null,
    "lat": 42.329475,
    "lon": -74.419861,
    "wheelchair": null,
    "diet_vegan": null,
    "addr_city": "New York",
    "timestamp": "2025-10-11T09:27:32.417224"
  },
  {
    "id": 761470542,
    "name": "Prattsville Diner",
    "cuisine": null,
    "lat": 42.3139508,
    "lon": -74.4312121,
    "wheelchair": null,
    "diet_vegan": null,
    "addr_city": "New York",
    "timestamp": "2025-10-11T09:27:32.417226"
  },
  {
    "id": 763650163,
    "name": "Junior's",
    "cuisine": null,
    "lat": 40.7582151,
    "lon": -73.9866267,
    "wheelchair": null,
    "diet_vegan": null,
    "addr_city": "New York",
    "timestamp": "2025-10-11T09:27:32.417228"
  },
  {
    "id": 763666903,
    "name": "New Panda Chinese Restaurant",
    "cuisine": "chinese",
    "lat": 42.7572459,
    "lon": -73.7584672,
    "wheelchair": null,
    "diet_vegan": null,
    "addr_city": "New York",
    "timestamp": "2025-10-11T09:27:32.417229"
  },
  {
    "id": 763671139,
    "name": "Tanpopo Ramen and Sake Bar",
    "cuisine": null,
    "lat": 42.8047877,
    "lon": -73.9041186,
    "wheelchair": null,
    "diet_vegan": null,
    "addr_city": "Schenectady",
    "timestamp": "2025-10-11T09:27:32.417231"
  },
  {
    "id": 763671171,
    "name": "Hunan Wok Chinese Restaurant",
    "cuisine": "chinese",
    "lat": 42.8049755,
    "lon": -73.9046599,
    "wheelchair": null,
    "diet_vegan": null,
    "addr_city": "Schenectady",
    "timestamp": "2025-10-11T09:27:32.417233"
  },
  {
    "id": 763671180,
    "name": "Pizza Buono",
    "cuisine": "pizza",
    "lat": 42.8032964,
    "lon": -73.8998812,
    "wheelchair": null,
    "diet_vegan": null,
    "addr_city": "New York",
    "timestamp": "2025-10-11T09:27:32.417236"
  },
  {
    "id": 763809878,
    "name": "Ling Ling Chinese Buffet",
    "cuisine": "chinese",
    "lat": 42.8564889,
    "lon": -77.0042349,
    "wheelchair": null,
    "diet_vegan": null,
    "addr_city": "New York",
    "timestamp": "2025-10-11T09:27:32.417237"
  },
  {
    "id": 764753854,
    "name": "Xin Fu Chinese Food",
    "cuisine": "chinese",
    "lat": 42.7707248,
    "lon": -73.8224327,
    "wheelchair": "yes",
    "diet_vegan": null,
    "addr_city": "Latham",
    "timestamp": "2025-10-11T09:27:32.417239"
  },
  {
    "id": 764755418,
    "name": "Mission BBQ",
    "cuisine": "barbecue",
    "lat": 42.7063159,
    "lon": -73.8211246,
    "wheelchair": null,
    "diet_vegan": null,
    "addr_city": "New York",
    "timestamp": "2025-10-11T09:27:32.417241"
  },
  {
    "id": 765800358,
    "name": "Diner",
    "cuisine": "american",
    "lat": 40.7106766,
    "lon": -73.9655977,
    "wheelchair": "no",
    "diet_vegan": null,
    "addr_city": "Brooklyn",
    "timestamp": "2025-10-11T09:27:32.417243"
  },
  {
    "id": 766200441,
    "name": "Chuck E. Cheese",
    "cuisine": "pizza",
    "lat": 42.7541951,
    "lon": -73.7666105,
    "wheelchair": "yes",
    "diet_vegan": null,
    "addr_city": "New York",
    "timestamp": "2025-10-11T09:27:32.417245"
  },
  {
    "id": 766880112,
    "name": "Tequila Mexican Bar and Grill",
    "cuisine": "mexican",
    "lat": 42.8166655,
    "lon": -73.8914941,
    "wheelchair": null,
    "diet_vegan": null,
    "addr_city": "Niskayuna",
    "timestamp": "2025-10-11T09:27:32.417246"
  },
  {
    "id": 767595430,
    "name": "Kabuki Sushi and Teriaki Japanese and Korean Cafe",
    "cuisine": "japanese",
    "lat": 42.7618925,
    "lon": -73.7959079,
    "wheelchair": null,
    "diet_vegan": null,
    "addr_city": "New York",
    "timestamp": "2025-10-11T09:27:32.417248"
  },
  {
    "id": 767595431,
    "name": "Shalimar Indian & Pakistan Cuisine",
    "cuisine": "indian",
    "lat": 42.7619188,
    "lon": -73.7960488,
    "wheelchair": null,
    "diet_vegan": null,
    "addr_city": "New York",
    "timestamp": "2025-10-11T09:27:32.417249"
  },
  {
    "id": 767595437,
    "name": "The Pasta Factory",
    "cuisine": "italian",
    "lat": 42.7626116,
    "lon": -73.7986296,
    "wheelchair": null,
    "diet_vegan": null,
    "addr_city": "New York",
    "timestamp": "2025-10-11T09:27:32.417251"
  },
  {
    "id": 767595447,
    "name": "Mercato's III restaurant",
    "cuisine": "italian",
    "lat": 42.7625625,
    "lon": -73.7983353,
    "wheelchair": null,
    "diet_vegan": null,
    "addr_city": "New York",
    "timestamp": "2025-10-11T09:27:32.417252"
  },
  {
    "id": 768227485,
    "name": null,
    "cuisine": null,
    "lat": 41.2785855,
    "lon": -74.2146943,
    "wheelchair": null,
    "diet_vegan": null,
    "addr_city": "New York",
    "timestamp": "2025-10-11T09:27:32.417254"
  },
  {
    "id": 768242399,
    "name": "Epicurian Bistro & Wine Bar",
    "cuisine": null,
    "lat": 42.7572107,
    "lon": -73.7615632,
    "wheelchair": null,
    "diet_vegan": null,
    "addr_city": "New York",
    "timestamp": "2025-10-11T09:27:32.417255"
  },
  {
    "id": 768242466,
    "name": "Golden Wok",
    "cuisine": "chinese",
    "lat": 42.7571664,
    "lon": -73.7612794,
    "wheelchair": null,
    "diet_vegan": null,
    "addr_city": "New York",
    "timestamp": "2025-10-11T09:27:32.417257"
  },
  {
    "id": 768716440,
    "name": "Giacobbi's Cucina Citta",
    "cuisine": "italian",
    "lat": 42.8995249,
    "lon": -78.8724508,
    "wheelchair": null,
    "diet_vegan": null,
    "addr_city": "New York",
    "timestamp": "2025-10-11T09:27:32.417259"
  },
  {
    "id": 768717316,
    "name": "La Fiesta",
    "cuisine": "mexican",
    "lat": 42.8995297,
    "lon": -78.8727533,
    "wheelchair": null,
    "diet_vegan": null,
    "addr_city": "New York",
    "timestamp": "2025-10-11T09:27:32.417260"
  },
  {
    "id": 768720420,
    "name": "Cafe 59",
    "cuisine": "american",
    "lat": 42.8992949,
    "lon": -78.8725002,
    "wheelchair": null,
    "diet_vegan": null,
    "addr_city": "Buffalo",
    "timestamp": "2025-10-11T09:27:32.417262"
  },
  {
    "id": 768734153,
    "name": "Tempo",
    "cuisine": null,
    "lat": 42.899958,
    "lon": -78.8735007,
    "wheelchair": null,
    "diet_vegan": null,
    "addr_city": "New York",
    "timestamp": "2025-10-11T09:27:32.417263"
  },
  {
    "id": 769477591,
    "name": "Green Cactus Cafe",
    "cuisine": "mexican",
    "lat": 40.9200826,
    "lon": -73.1297609,
    "wheelchair": null,
    "diet_vegan": null,
    "addr_city": "Stony Brook",
    "timestamp": "2025-10-11T09:27:32.417265"
  },
  {
    "id": 769478218,
    "name": "Station Pizza",
    "cuisine": "pizza;italian",
    "lat": 40.9201029,
    "lon": -73.1298896,
    "wheelchair": null,
    "diet_vegan": null,
    "addr_city": "Stony Brook",
    "timestamp": "2025-10-11T09:27:32.417267"
  },
  {
    "id": 769478283,
    "name": "Soup's On",
    "cuisine": "soup",
    "lat": 40.9200258,
    "lon": -73.1296321,
    "wheelchair": null,
    "diet_vegan": null,
    "addr_city": "Stony Brook",
    "timestamp": "2025-10-11T09:27:32.417269"
  },
  {
    "id": 773400807,
    "name": "Tandoori House",
    "cuisine": "indian",
    "lat": 42.8230976,
    "lon": -73.9108858,
    "wheelchair": null,
    "diet_vegan": null,
    "addr_city": "New York",
    "timestamp": "2025-10-11T09:27:32.417270"
  },
  {
    "id": 791991572,
    "name": "Milano",
    "cuisine": null,
    "lat": 42.7279222,
    "lon": -73.7610178,
    "wheelchair": null,
    "diet_vegan": null,
    "addr_city": "New York",
    "timestamp": "2025-10-11T09:27:32.417272"
  },
  {
    "id": 791991614,
    "name": "Yang's Asian Bistro",
    "cuisine": "chinese",
    "lat": 42.7265969,
    "lon": -73.7608997,
    "wheelchair": null,
    "diet_vegan": null,
    "addr_city": "New York",
    "timestamp": "2025-10-11T09:27:32.417274"
  },
  {
    "id": 791991667,
    "name": "Midpoint Artisan Pizza",
    "cuisine": "pizza;italian",
    "lat": 42.7275104,
    "lon": -73.7610075,
    "wheelchair": null,
    "diet_vegan": "yes",
    "addr_city": "Latham",
    "timestamp": "2025-10-11T09:27:32.417275"
  },
  {
    "id": 797776349,
    "name": null,
    "cuisine": null,
    "lat": 43.0264671,
    "lon": -76.4767485,
    "wheelchair": null,
    "diet_vegan": null,
    "addr_city": "New York",
    "timestamp": "2025-10-11T09:27:32.417277"
  },
  {
    "id": 803044278,
    "name": "Otis & Olivers Restaurant",
    "cuisine": null,
    "lat": 42.7640872,
    "lon": -73.8002768,
    "wheelchair": "yes",
    "diet_vegan": null,
    "addr_city": "New York",
    "timestamp": "2025-10-11T09:27:32.417279"
  },
  {
    "id": 803145276,
    "name": "LDR Char Pit",
    "cuisine": "american",
    "lat": 43.2576947,
    "lon": -77.6095457,
    "wheelchair": null,
    "diet_vegan": null,
    "addr_city": "New York",
    "timestamp": "2025-10-11T09:27:32.417280"
  },
  {
    "id": 804483956,
    "name": "Lee Lin Chinese Restaurant",
    "cuisine": "chinese",
    "lat": 42.7058941,
    "lon": -73.6594406,
    "wheelchair": null,
    "diet_vegan": null,
    "addr_city": "Troy",
    "timestamp": "2025-10-11T09:27:32.417282"
  },
  {
    "id": 804519724,
    "name": "Chapli & Platters",
    "cuisine": null,
    "lat": 42.8043906,
    "lon": -73.9041998,
    "wheelchair": null,
    "diet_vegan": null,
    "addr_city": "Schenectady",
    "timestamp": "2025-10-11T09:27:32.417284"
  },
  {
    "id": 810252755,
    "name": "Applebee's",
    "cuisine": "american",
    "lat": 40.7409223,
    "lon": -73.5913212,
    "wheelchair": null,
    "diet_vegan": null,
    "addr_city": "New York",
    "timestamp": "2025-10-11T09:27:32.417285"
  },
  {
    "id": 813645468,
    "name": "Graziella's",
    "cuisine": "italian;pizza",
    "lat": 40.690471,
    "lon": -73.9694971,
    "wheelchair": null,
    "diet_vegan": null,
    "addr_city": "New York",
    "timestamp": "2025-10-11T09:27:32.417287"
  },
  {
    "id": 814632971,
    "name": "Chopsticks",
    "cuisine": "cantonese",
    "lat": 43.1052621,
    "lon": -77.6175692,
    "wheelchair": null,
    "diet_vegan": null,
    "addr_city": "New York",
    "timestamp": "2025-10-11T09:27:32.417288"
  },
  {
    "id": 818239355,
    "name": "Dannee Thai",
    "cuisine": "thai",
    "lat": 40.6904836,
    "lon": -73.960039,
    "wheelchair": null,
    "diet_vegan": null,
    "addr_city": "New York",
    "timestamp": "2025-10-11T09:27:32.417290"
  },
  {
    "id": 819190136,
    "name": "The Wine Thief",
    "cuisine": null,
    "lat": 42.9087752,
    "lon": -78.8768975,
    "wheelchair": null,
    "diet_vegan": null,
    "addr_city": "New York",
    "timestamp": "2025-10-11T09:27:32.417291"
  },
  {
    "id": 819190150,
    "name": "Scarlet",
    "cuisine": null,
    "lat": 42.8976332,
    "lon": -78.8738934,
    "wheelchair": null,
    "diet_vegan": null,
    "addr_city": "New York",
    "timestamp": "2025-10-11T09:27:32.417293"
  },
  {
    "id": 829688173,
    "name": "Applebee's",
    "cuisine": "american",
    "lat": 42.4818777,
    "lon": -76.4852556,
    "wheelchair": null,
    "diet_vegan": null,
    "addr_city": "Ithaca",
    "timestamp": "2025-10-11T09:27:32.417295"
  },
  {
    "id": 839081201,
    "name": null,
    "cuisine": null,
    "lat": 40.58413,
    "lon": -73.6663505,
    "wheelchair": null,
    "diet_vegan": null,
    "addr_city": "New York",
    "timestamp": "2025-10-11T09:27:32.417296"
  },
  {
    "id": 846508179,
    "name": "Nighthawks",
    "cuisine": "american",
    "lat": 42.7308904,
    "lon": -73.6879303,
    "wheelchair": null,
    "diet_vegan": null,
    "addr_city": "Troy",
    "timestamp": "2025-10-11T09:27:32.417298"
  },
  {
    "id": 854661691,
    "name": "The Eatery: Carol's Place",
    "cuisine": null,
    "lat": 42.705088,
    "lon": -73.6601315,
    "wheelchair": null,
    "diet_vegan": null,
    "addr_city": "Troy",
    "timestamp": "2025-10-11T09:27:32.417300"
  },
  {
    "id": 858577994,
    "name": "New Greece China Restaurant",
    "cuisine": null,
    "lat": 43.1883212,
    "lon": -77.6994153,
    "wheelchair": null,
    "diet_vegan": null,
    "addr_city": "New York",
    "timestamp": "2025-10-11T09:27:32.417301"
  },
  {
    "id": 858578021,
    "name": "Bella Pasta",
    "cuisine": null,
    "lat": 43.1881366,
    "lon": -77.7005569,
    "wheelchair": null,
    "diet_vegan": null,
    "addr_city": "Rochester",
    "timestamp": "2025-10-11T09:27:32.417303"
  },
  {
    "id": 860408103,
    "name": null,
    "cuisine": null,
    "lat": 42.5330413,
    "lon": -75.524268,
    "wheelchair": null,
    "diet_vegan": null,
    "addr_city": "New York",
    "timestamp": "2025-10-11T09:27:32.417304"
  },
  {
    "id": 870315949,
    "name": "Fuji East Restaurant",
    "cuisine": "japanese",
    "lat": 40.7590731,
    "lon": -73.9522681,
    "wheelchair": null,
    "diet_vegan": null,
    "addr_city": "New York",
    "timestamp": "2025-10-11T09:27:32.417306"
  },
  {
    "id": 883069286,
    "name": "Karavalli",
    "cuisine": "indian",
    "lat": 42.762307,
    "lon": -73.7484353,
    "wheelchair": null,
    "diet_vegan": null,
    "addr_city": "Latham",
    "timestamp": "2025-10-11T09:27:32.417308"
  },
  {
    "id": 883337398,
    "name": "Ristorante Settepani",
    "cuisine": "italian",
    "lat": 40.8043628,
    "lon": -73.9476425,
    "wheelchair": null,
    "diet_vegan": null,
    "addr_city": "New York",
    "timestamp": "2025-10-11T09:27:32.417309"
  },
  {
    "id": 885424462,
    "name": "Cuyler Diner",
    "cuisine": null,
    "lat": 42.7376993,
    "lon": -75.9480763,
    "wheelchair": null,
    "diet_vegan": null,
    "addr_city": "New York",
    "timestamp": "2025-10-11T09:27:32.417311"
  },
  {
    "id": 888955052,
    "name": "Juliette Restaurant",
    "cuisine": null,
    "lat": 40.716964,
    "lon": -73.959114,
    "wheelchair": "limited",
    "diet_vegan": null,
    "addr_city": "New York",
    "timestamp": "2025-10-11T09:27:32.417312"
  },
  {
    "id": 888963055,
    "name": "miDmuS",
    "cuisine": null,
    "lat": 40.717029,
    "lon": -73.95921,
    "wheelchair": null,
    "diet_vegan": null,
    "addr_city": "New York",
    "timestamp": "2025-10-11T09:27:32.417314"
  },
  {
    "id": 888968071,
    "name": "Ako",
    "cuisine": "japanese",
    "lat": 40.7169209,
    "lon": -73.9585388,
    "wheelchair": null,
    "diet_vegan": null,
    "addr_city": "Brooklyn",
    "timestamp": "2025-10-11T09:27:32.417316"
  },
  {
    "id": 896465603,
    "name": "Rockmeisha Izakaya",
    "cuisine": null,
    "lat": 40.7326428,
    "lon": -74.002464,
    "wheelchair": null,
    "diet_vegan": null,
    "addr_city": "New York",
    "timestamp": "2025-10-11T09:27:32.417317"
  },
  {
    "id": 896469827,
    "name": "Annisa",
    "cuisine": null,
    "lat": 40.7326055,
    "lon": -74.0025709,
    "wheelchair": null,
    "diet_vegan": null,
    "addr_city": "New York",
    "timestamp": "2025-10-11T09:27:32.417319"
  },
  {
    "id": 923288027,
    "name": null,
    "cuisine": null,
    "lat": 42.7888274,
    "lon": -77.5044956,
    "wheelchair": null,
    "diet_vegan": null,
    "addr_city": "New York",
    "timestamp": "2025-10-11T09:27:32.417320"
  },
  {
    "id": 924831389,
    "name": "Sinbad's",
    "cuisine": "kebab",
    "lat": 43.1475903,
    "lon": -77.576628,
    "wheelchair": null,
    "diet_vegan": "yes",
    "addr_city": "Rochester",
    "timestamp": "2025-10-11T09:27:32.417322"
  },
  {
    "id": 924831415,
    "name": "Szechuan Opera",
    "cuisine": "chinese;sichuan",
    "lat": 43.1486128,
    "lon": -77.5785531,
    "wheelchair": null,
    "diet_vegan": null,
    "addr_city": "Rochester",
    "timestamp": "2025-10-11T09:27:32.417324"
  },
  {
    "id": 924831452,
    "name": "Jines",
    "cuisine": null,
    "lat": 43.1483382,
    "lon": -77.5781189,
    "wheelchair": null,
    "diet_vegan": null,
    "addr_city": "Rochester",
    "timestamp": "2025-10-11T09:27:32.417325"
  },
  {
    "id": 927124206,
    "name": "Chipshots Sports Bar & Restaurant",
    "cuisine": null,
    "lat": 42.7643254,
    "lon": -73.869238,
    "wheelchair": null,
    "diet_vegan": null,
    "addr_city": "Colonie",
    "timestamp": "2025-10-11T09:27:32.417327"
  },
  {
    "id": 927331261,
    "name": "Wasabi",
    "cuisine": "japanese",
    "lat": 42.917601,
    "lon": -78.8772064,
    "wheelchair": null,
    "diet_vegan": null,
    "addr_city": "Buffalo",
    "timestamp": "2025-10-11T09:27:32.417329"
  },
  {
    "id": 927331270,
    "name": "Aguacates Mexican Bar & Grill",
    "cuisine": "mexican",
    "lat": 42.9178299,
    "lon": -78.8768603,
    "wheelchair": null,
    "diet_vegan": null,
    "addr_city": "Buffalo",
    "timestamp": "2025-10-11T09:27:32.417331"
  },
  {
    "id": 931799204,
    "name": "John's of Bleecker St",
    "cuisine": null,
    "lat": 40.7316098,
    "lon": -74.0033416,
    "wheelchair": null,
    "diet_vegan": null,
    "addr_city": "New York",
    "timestamp": "2025-10-11T09:27:32.417332"
  },
  {
    "id": 931799207,
    "name": "Joe's Pizza",
    "cuisine": "pizza",
    "lat": 40.7305467,
    "lon": -74.0020629,
    "wheelchair": null,
    "diet_vegan": null,
    "addr_city": "New York",
    "timestamp": "2025-10-11T09:27:32.417334"
  },
  {
    "id": 936996917,
    "name": "Branca",
    "cuisine": "pizza;italian",
    "lat": 43.0611423,
    "lon": -77.4765385,
    "wheelchair": null,
    "diet_vegan": null,
    "addr_city": "Pittsford",
    "timestamp": "2025-10-11T09:27:32.417335"
  },
  {
    "id": 938891353,
    "name": "Gregerios",
    "cuisine": null,
    "lat": 43.1786638,
    "lon": -77.5759116,
    "wheelchair": null,
    "diet_vegan": null,
    "addr_city": "New York",
    "timestamp": "2025-10-11T09:27:32.417337"
  },
  {
    "id": 938917467,
    "name": "Salsa Fresca Mexican Grill",
    "cuisine": null,
    "lat": 41.9529827,
    "lon": -73.5125217,
    "wheelchair": null,
    "diet_vegan": null,
    "addr_city": "New York",
    "timestamp": "2025-10-11T09:27:32.417341"
  },
  {
    "id": 946403687,
    "name": null,
    "cuisine": null,
    "lat": 41.0241475,
    "lon": -73.9431993,
    "wheelchair": null,
    "diet_vegan": null,
    "addr_city": "New York",
    "timestamp": "2025-10-11T09:27:32.417342"
  },
  {
    "id": 946403694,
    "name": null,
    "cuisine": null,
    "lat": 41.0169012,
    "lon": -73.9429578,
    "wheelchair": null,
    "diet_vegan": null,
    "addr_city": "New York",
    "timestamp": "2025-10-11T09:27:32.417344"
  },
  {
    "id": 952085477,
    "name": "Mill Rock",
    "cuisine": null,
    "lat": 43.0406131,
    "lon": -73.9249033,
    "wheelchair": null,
    "diet_vegan": null,
    "addr_city": "New York",
    "timestamp": "2025-10-11T09:27:32.417346"
  },
  {
    "id": 952085482,
    "name": "Abeel's",
    "cuisine": null,
    "lat": 43.0432556,
    "lon": -73.911224,
    "wheelchair": null,
    "diet_vegan": null,
    "addr_city": "New York",
    "timestamp": "2025-10-11T09:27:32.417347"
  },
  {
    "id": 959120275,
    "name": "Blue Moon",
    "cuisine": null,
    "lat": 40.6570875,
    "lon": -73.6453589,
    "wheelchair": null,
    "diet_vegan": null,
    "addr_city": "Rockville Centre",
    "timestamp": "2025-10-11T09:27:32.417349"
  },
  {
    "id": 973774070,
    "name": "Cafe Maya",
    "cuisine": "mexican",
    "lat": 41.6064126,
    "lon": -73.9207766,
    "wheelchair": null,
    "diet_vegan": null,
    "addr_city": "New York",
    "timestamp": "2025-10-11T09:27:32.417350"
  },
  {
    "id": 977202200,
    "name": "Sangam",
    "cuisine": "indian",
    "lat": 42.4421961,
    "lon": -76.4876165,
    "wheelchair": null,
    "diet_vegan": null,
    "addr_city": "Ithaca",
    "timestamp": "2025-10-11T09:27:32.417352"
  },
  {
    "id": 977203388,
    "name": "Ned's Pizza",
    "cuisine": "pizza",
    "lat": 42.4415095,
    "lon": -76.4862265,
    "wheelchair": "yes",
    "diet_vegan": null,
    "addr_city": "Ithaca",
    "timestamp": "2025-10-11T09:27:32.417354"
  },
  {
    "id": 979951459,
    "name": "Josie's Table",
    "cuisine": "american",
    "lat": 42.6845989,
    "lon": -73.8398024,
    "wheelchair": null,
    "diet_vegan": null,
    "addr_city": "New York",
    "timestamp": "2025-10-11T09:27:32.417355"
  },
  {
    "id": 979969372,
    "name": "Simone's Kitchen",
    "cuisine": null,
    "lat": 42.6840723,
    "lon": -73.8407522,
    "wheelchair": null,
    "diet_vegan": null,
    "addr_city": "New York",
    "timestamp": "2025-10-11T09:27:32.417357"
  },
  {
    "id": 981399335,
    "name": "Momo Sushi",
    "cuisine": "japanese",
    "lat": 40.7051487,
    "lon": -73.9333751,
    "wheelchair": null,
    "diet_vegan": null,
    "addr_city": "New York",
    "timestamp": "2025-10-11T09:27:32.417358"
  },
  {
    "id": 989505411,
    "name": "LongHorn Steakhouse",
    "cuisine": "steak_house",
    "lat": 43.0248253,
    "lon": -77.4377019,
    "wheelchair": null,
    "diet_vegan": null,
    "addr_city": "Victor",
    "timestamp": "2025-10-11T09:27:32.417360"
  },
  {
    "id": 997401247,
    "name": "Outback Steakhouse",
    "cuisine": "american;steak",
    "lat": 43.2078143,
    "lon": -77.6798816,
    "wheelchair": null,
    "diet_vegan": null,
    "addr_city": "Rochester",
    "timestamp": "2025-10-11T09:27:32.417362"
  },
  {
    "id": 998867681,
    "name": "Legends Pizza",
    "cuisine": "pizza",
    "lat": 42.7173648,
    "lon": -73.813066,
    "wheelchair": "yes",
    "diet_vegan": null,
    "addr_city": "Albany",
    "timestamp": "2025-10-11T09:27:32.417364"
  },
  {
    "id": 999961211,
    "name": "Hummus Place",
    "cuisine": null,
    "lat": 40.7322601,
    "lon": -74.0033462,
    "wheelchair": null,
    "diet_vegan": null,
    "addr_city": "New York",
    "timestamp": "2025-10-11T09:27:32.417368"
  },
  {
    "id": 1002880708,
    "name": "Lombardi's Pizza",
    "cuisine": "pizza",
    "lat": 40.7215933,
    "lon": -73.9956147,
    "wheelchair": null,
    "diet_vegan": null,
    "addr_city": "New York",
    "timestamp": "2025-10-11T09:27:32.417370"
  },
  {
    "id": 1008002706,
    "name": "Horizons",
    "cuisine": null,
    "lat": 43.0455811,
    "lon": -77.4600219,
    "wheelchair": null,
    "diet_vegan": null,
    "addr_city": "New York",
    "timestamp": "2025-10-11T09:27:32.417372"
  },
  {
    "id": 1027643804,
    "name": "Jackson Hall",
    "cuisine": null,
    "lat": 40.7345729,
    "lon": -73.1767402,
    "wheelchair": null,
    "diet_vegan": null,
    "addr_city": "East Islip",
    "timestamp": "2025-10-11T09:27:32.417374"
  },
  {
    "id": 1027643817,
    "name": "Vinnie's Mulberry Street",
    "cuisine": "pizza",
    "lat": 40.73052,
    "lon": -73.1929242,
    "wheelchair": null,
    "diet_vegan": null,
    "addr_city": "East Islip",
    "timestamp": "2025-10-11T09:27:32.417375"
  },
  {
    "id": 1036430893,
    "name": "Bill Gray's",
    "cuisine": "burger",
    "lat": 43.0855762,
    "lon": -77.6022747,
    "wheelchair": null,
    "diet_vegan": null,
    "addr_city": "Rochester",
    "timestamp": "2025-10-11T09:27:32.417377"
  },
  {
    "id": 1036449485,
    "name": "King and I",
    "cuisine": "thai",
    "lat": 43.0913628,
    "lon": -77.6114899,
    "wheelchair": null,
    "diet_vegan": null,
    "addr_city": "New York",
    "timestamp": "2025-10-11T09:27:32.417378"
  },
  {
    "id": 1036610079,
    "name": "Cheap Charlie's",
    "cuisine": null,
    "lat": 42.903686,
    "lon": -77.419586,
    "wheelchair": null,
    "diet_vegan": null,
    "addr_city": "New York",
    "timestamp": "2025-10-11T09:27:32.417380"
  },
  {
    "id": 1039901428,
    "name": "The Delaware",
    "cuisine": null,
    "lat": 42.6428833,
    "lon": -73.7769766,
    "wheelchair": null,
    "diet_vegan": null,
    "addr_city": "New York",
    "timestamp": "2025-10-11T09:27:32.417381"
  },
  {
    "id": 1042213413,
    "name": "Sabor Latino Taqueria",
    "cuisine": "mexican",
    "lat": 42.6598521,
    "lon": -73.7678343,
    "wheelchair": null,
    "diet_vegan": null,
    "addr_city": "New York",
    "timestamp": "2025-10-11T09:27:32.417383"
  },
  {
    "id": 1052125725,
    "name": "Nicole's",
    "cuisine": "italian",
    "lat": 42.6382567,
    "lon": -73.7890565,
    "wheelchair": null,
    "diet_vegan": null,
    "addr_city": "New York",
    "timestamp": "2025-10-11T09:27:32.417385"
  },
  {
    "id": 1052198331,
    "name": "Albany Ale and Oyster",
    "cuisine": null,
    "lat": 42.6532762,
    "lon": -73.7884833,
    "wheelchair": null,
    "diet_vegan": null,
    "addr_city": "New York",
    "timestamp": "2025-10-11T09:27:32.417386"
  },
  {
    "id": 1052198341,
    "name": "The Fountain Restaurant",
    "cuisine": "american",
    "lat": 42.6532601,
    "lon": -73.7881867,
    "wheelchair": null,
    "diet_vegan": null,
    "addr_city": "Albany",
    "timestamp": "2025-10-11T09:27:32.417388"
  },
  {
    "id": 1052198458,
    "name": "Sake Cafe",
    "cuisine": "japanese",
    "lat": 42.6532316,
    "lon": -73.7876657,
    "wheelchair": null,
    "diet_vegan": null,
    "addr_city": "New York",
    "timestamp": "2025-10-11T09:27:32.417390"
  },
  {
    "id": 1057500994,
    "name": "Jay's Pizza",
    "cuisine": "pizza",
    "lat": 43.1026121,
    "lon": -73.51355,
    "wheelchair": null,
    "diet_vegan": null,
    "addr_city": "New York",
    "timestamp": "2025-10-11T09:27:32.417391"
  },
  {
    "id": 1057501255,
    "name": "Elsasser's @ 111",
    "cuisine": null,
    "lat": 43.0903341,
    "lon": -73.4992157,
    "wheelchair": null,
    "diet_vegan": null,
    "addr_city": "New York",
    "timestamp": "2025-10-11T09:27:32.417393"
  },
  {
    "id": 1058084237,
    "name": "The Olive Tree",
    "cuisine": null,
    "lat": 42.9010948,
    "lon": -78.680005,
    "wheelchair": null,
    "diet_vegan": null,
    "addr_city": "New York",
    "timestamp": "2025-10-11T09:27:32.417394"
  },
  {
    "id": 1060581014,
    "name": "Tournados",
    "cuisine": null,
    "lat": 43.1557874,
    "lon": -77.5999186,
    "wheelchair": null,
    "diet_vegan": null,
    "addr_city": "New York",
    "timestamp": "2025-10-11T09:27:32.417396"
  },
  {
    "id": 1064286075,
    "name": "Chen Garden",
    "cuisine": "chinese",
    "lat": 43.1295373,
    "lon": -77.5675643,
    "wheelchair": null,
    "diet_vegan": null,
    "addr_city": "Rochester",
    "timestamp": "2025-10-11T09:27:32.417398"
  },
  {
    "id": 1064369130,
    "name": "Hungry's",
    "cuisine": "burger;hot_dog;garbage_plate;wrap",
    "lat": 43.0908146,
    "lon": -77.5146051,
    "wheelchair": null,
    "diet_vegan": null,
    "addr_city": "Pittsford",
    "timestamp": "2025-10-11T09:27:32.417399"
  },
  {
    "id": 1069599262,
    "name": "Spinners",
    "cuisine": "pizza",
    "lat": 42.6523008,
    "lon": -73.8122145,
    "wheelchair": null,
    "diet_vegan": null,
    "addr_city": "New York",
    "timestamp": "2025-10-11T09:27:32.417401"
  },
  {
    "id": 1071657341,
    "name": "Desiderio's",
    "cuisine": null,
    "lat": 42.8946814,
    "lon": -78.642551,
    "wheelchair": null,
    "diet_vegan": null,
    "addr_city": "New York",
    "timestamp": "2025-10-11T09:27:32.417402"
  },
  {
    "id": 1084586786,
    "name": "La Luna",
    "cuisine": null,
    "lat": 41.6593098,
    "lon": -73.9312835,
    "wheelchair": null,
    "diet_vegan": null,
    "addr_city": "New York",
    "timestamp": "2025-10-11T09:27:32.417404"
  },
  {
    "id": 1084683097,
    "name": "Hidden Cafe",
    "cuisine": null,
    "lat": 42.6275353,
    "lon": -73.8123697,
    "wheelchair": null,
    "diet_vegan": null,
    "addr_city": "New York",
    "timestamp": "2025-10-11T09:27:32.417405"
  },
  {
    "id": 1095601322,
    "name": "Applebee's",
    "cuisine": "american",
    "lat": 43.3333019,
    "lon": -73.6503371,
    "wheelchair": null,
    "diet_vegan": null,
    "addr_city": "Queensbury",
    "timestamp": "2025-10-11T09:27:32.417407"
  },
  {
    "id": 1096935553,
    "name": null,
    "cuisine": null,
    "lat": 41.4983221,
    "lon": -74.1007286,
    "wheelchair": null,
    "diet_vegan": null,
    "addr_city": "New York",
    "timestamp": "2025-10-11T09:27:32.417409"
  },
  {
    "id": 1097313178,
    "name": "Caroline's at the Glen Iris Inn",
    "cuisine": null,
    "lat": 42.5843716,
    "lon": -78.0426401,
    "wheelchair": null,
    "diet_vegan": null,
    "addr_city": "Castile",
    "timestamp": "2025-10-11T09:27:32.417410"
  },
  {
    "id": 1100747758,
    "name": "Royal India",
    "cuisine": "indian",
    "lat": 42.670068,
    "lon": -73.7782307,
    "wheelchair": null,
    "diet_vegan": null,
    "addr_city": "Albany",
    "timestamp": "2025-10-11T09:27:32.417414"
  },
  {
    "id": 1100873040,
    "name": "Jack Kelly's Tavern by the Green",
    "cuisine": null,
    "lat": 42.5895787,
    "lon": -73.5494003,
    "wheelchair": null,
    "diet_vegan": null,
    "addr_city": "Averill Park",
    "timestamp": "2025-10-11T09:27:32.417415"
  },
  {
    "id": 1107019764,
    "name": "Yard of Ale",
    "cuisine": null,
    "lat": 42.828078,
    "lon": -77.851308,
    "wheelchair": null,
    "diet_vegan": null,
    "addr_city": "New York",
    "timestamp": "2025-10-11T09:27:32.417417"
  },
  {
    "id": 1112477518,
    "name": "Brick Lane",
    "cuisine": "indian",
    "lat": 40.7266326,
    "lon": -73.9893341,
    "wheelchair": null,
    "diet_vegan": null,
    "addr_city": "New York",
    "timestamp": "2025-10-11T09:27:32.417419"
  },
  {
    "id": 1119244578,
    "name": "Tom's Restaurant",
    "cuisine": "diner",
    "lat": 40.8054509,
    "lon": -73.9654163,
    "wheelchair": null,
    "diet_vegan": null,
    "addr_city": "New York",
    "timestamp": "2025-10-11T09:27:32.417422"
  },
  {
    "id": 1146362832,
    "name": "Sushi King",
    "cuisine": "japanese;sushi",
    "lat": 43.1298742,
    "lon": -77.4754022,
    "wheelchair": null,
    "diet_vegan": null,
    "addr_city": "Penfield",
    "timestamp": "2025-10-11T09:27:32.417424"
  },
  {
    "id": 1157897809,
    "name": "Grappa'72 Ristorante",
    "cuisine": "italian",
    "lat": 42.6788061,
    "lon": -73.79081,
    "wheelchair": null,
    "diet_vegan": null,
    "addr_city": "Albany",
    "timestamp": "2025-10-11T09:27:32.417426"
  },
  {
    "id": 1160272752,
    "name": "Uncommon Grounds Coffee & Bagels",
    "cuisine": "coffee_shop;sandwich;bagel",
    "lat": 42.6772853,
    "lon": -73.8235641,
    "wheelchair": null,
    "diet_vegan": null,
    "addr_city": "New York",
    "timestamp": "2025-10-11T09:27:32.417427"
  },
  {
    "id": 1160379352,
    "name": "Osaka",
    "cuisine": "japanese",
    "lat": 40.6848533,
    "lon": -73.9948629,
    "wheelchair": null,
    "diet_vegan": null,
    "addr_city": "New York",
    "timestamp": "2025-10-11T09:27:32.417429"
  },
  {
    "id": 1162660608,
    "name": "Salvatore's Italian Gardens",
    "cuisine": "italian",
    "lat": 42.9370245,
    "lon": -78.6959697,
    "wheelchair": null,
    "diet_vegan": null,
    "addr_city": "New York",
    "timestamp": "2025-10-11T09:27:32.417431"
  },
  {
    "id": 1163613554,
    "name": "The Gallery Grill",
    "cuisine": "grill",
    "lat": 43.0025441,
    "lon": -78.8412308,
    "wheelchair": null,
    "diet_vegan": null,
    "addr_city": "New York",
    "timestamp": "2025-10-11T09:27:32.417432"
  },
  {
    "id": 1173725150,
    "name": "Gracie's",
    "cuisine": null,
    "lat": 43.0836863,
    "lon": -77.6692008,
    "wheelchair": "limited",
    "diet_vegan": null,
    "addr_city": "New York",
    "timestamp": "2025-10-11T09:27:32.417434"
  },
  {
    "id": 1173725165,
    "name": "Crossroads",
    "cuisine": null,
    "lat": 43.0825641,
    "lon": -77.6799543,
    "wheelchair": "yes",
    "diet_vegan": "yes",
    "addr_city": "New York",
    "timestamp": "2025-10-11T09:27:32.417436"
  },
  {
    "id": 1173725224,
    "name": "Brick City Caf\u00e9",
    "cuisine": "american",
    "lat": 43.0838476,
    "lon": -77.6747672,
    "wheelchair": null,
    "diet_vegan": null,
    "addr_city": "New York",
    "timestamp": "2025-10-11T09:27:32.417437"
  },
  {
    "id": 1177268453,
    "name": "Leland",
    "cuisine": "american",
    "lat": 40.6797196,
    "lon": -73.9651937,
    "wheelchair": null,
    "diet_vegan": null,
    "addr_city": "Brooklyn",
    "timestamp": "2025-10-11T09:27:32.417439"
  },
  {
    "id": 1183811970,
    "name": "Sinatra's Restaurant",
    "cuisine": null,
    "lat": 42.9583719,
    "lon": -78.8522521,
    "wheelchair": null,
    "diet_vegan": null,
    "addr_city": "New York",
    "timestamp": "2025-10-11T09:27:32.417440"
  },
  {
    "id": 1197036738,
    "name": "Sara's Deli",
    "cuisine": null,
    "lat": 43.0355565,
    "lon": -78.7497108,
    "wheelchair": null,
    "diet_vegan": null,
    "addr_city": "New York",
    "timestamp": "2025-10-11T09:27:32.417442"
  },
  {
    "id": 1197037175,
    "name": "Amherst Pizza & Ale House",
    "cuisine": "pizza",
    "lat": 43.0352449,
    "lon": -78.7497052,
    "wheelchair": null,
    "diet_vegan": null,
    "addr_city": "New York",
    "timestamp": "2025-10-11T09:27:32.417444"
  },
  {
    "id": 1197038003,
    "name": "Sun Garden",
    "cuisine": "chinese",
    "lat": 43.0357957,
    "lon": -78.7497055,
    "wheelchair": null,
    "diet_vegan": null,
    "addr_city": "New York",
    "timestamp": "2025-10-11T09:27:32.417445"
  },
  {
    "id": 1209920386,
    "name": "Joe's Tavern",
    "cuisine": null,
    "lat": 42.7809281,
    "lon": -73.7102165,
    "wheelchair": null,
    "diet_vegan": null,
    "addr_city": "Cohoes",
    "timestamp": "2025-10-11T09:27:32.417447"
  },
  {
    "id": 1213707742,
    "name": "Urban Rustic",
    "cuisine": null,
    "lat": 40.719235,
    "lon": -73.9528162,
    "wheelchair": null,
    "diet_vegan": null,
    "addr_city": "Brooklyn",
    "timestamp": "2025-10-11T09:27:32.417448"
  },
  {
    "id": 1214241637,
    "name": "Les Pates Et Les Nouilles",
    "cuisine": "thai",
    "lat": 42.9303167,
    "lon": -75.8548718,
    "wheelchair": null,
    "diet_vegan": null,
    "addr_city": "Cazenovia",
    "timestamp": "2025-10-11T09:27:32.417450"
  },
  {
    "id": 1219032943,
    "name": "Moosewood Restaurant",
    "cuisine": "local",
    "lat": 42.4406028,
    "lon": -76.4986321,
    "wheelchair": null,
    "diet_vegan": "yes",
    "addr_city": "Ithaca",
    "timestamp": "2025-10-11T09:27:32.417452"
  },
  {
    "id": 1219032966,
    "name": "Asia Cuisine",
    "cuisine": "korean;japanese",
    "lat": 42.4403705,
    "lon": -76.4958318,
    "wheelchair": null,
    "diet_vegan": null,
    "addr_city": "Ithaca",
    "timestamp": "2025-10-11T09:27:32.417454"
  },
  {
    "id": 1227324329,
    "name": "New Bejing Restaurant",
    "cuisine": "chinese",
    "lat": 42.7850392,
    "lon": -73.6731392,
    "wheelchair": null,
    "diet_vegan": null,
    "addr_city": "New York",
    "timestamp": "2025-10-11T09:27:32.417455"
  },
  {
    "id": 1227678751,
    "name": "The River Caf\u00e9",
    "cuisine": "new_american",
    "lat": 40.7037562,
    "lon": -73.994822,
    "wheelchair": "limited",
    "diet_vegan": null,
    "addr_city": "Brooklyn",
    "timestamp": "2025-10-11T09:27:32.417457"
  },
  {
    "id": 1228524673,
    "name": "Hill Street Cafe",
    "cuisine": "pizza;american",
    "lat": 42.6467075,
    "lon": -73.758024,
    "wheelchair": null,
    "diet_vegan": null,
    "addr_city": "New York",
    "timestamp": "2025-10-11T09:27:32.417458"
  },
  {
    "id": 1228524733,
    "name": "Hattie's Restaurant",
    "cuisine": null,
    "lat": 42.645974,
    "lon": -73.7551655,
    "wheelchair": null,
    "diet_vegan": null,
    "addr_city": "Albany",
    "timestamp": "2025-10-11T09:27:32.417460"
  },
  {
    "id": 1228524795,
    "name": "Cafe Capriccio",
    "cuisine": "italian",
    "lat": 42.6469093,
    "lon": -73.7561817,
    "wheelchair": null,
    "diet_vegan": null,
    "addr_city": "Albany",
    "timestamp": "2025-10-11T09:27:32.417461"
  },
  {
    "id": 1234833817,
    "name": "Blue 82",
    "cuisine": null,
    "lat": 42.6524022,
    "lon": -73.7511667,
    "wheelchair": null,
    "diet_vegan": null,
    "addr_city": "New York",
    "timestamp": "2025-10-11T09:27:32.417463"
  },
  {
    "id": 1234833819,
    "name": "The Hollow + Kitchen",
    "cuisine": null,
    "lat": 42.6523075,
    "lon": -73.7507607,
    "wheelchair": null,
    "diet_vegan": null,
    "addr_city": "Albany",
    "timestamp": "2025-10-11T09:27:32.417465"
  },
  {
    "id": 1234833831,
    "name": "Pizzeria 54",
    "cuisine": "pizza",
    "lat": 42.6513448,
    "lon": -73.7514044,
    "wheelchair": null,
    "diet_vegan": null,
    "addr_city": "Albany",
    "timestamp": "2025-10-11T09:27:32.417466"
  },
  {
    "id": 1234844630,
    "name": "Schag A Val",
    "cuisine": "sandwich;pizza;pasta;breakfast;salad",
    "lat": 42.9033028,
    "lon": -73.5865364,
    "wheelchair": null,
    "diet_vegan": null,
    "addr_city": "Schaghticoke",
    "timestamp": "2025-10-11T09:27:32.417470"
  },
  {
    "id": 1240483946,
    "name": "Bill's Townhouse",
    "cuisine": "american",
    "lat": 40.7601706,
    "lon": -73.9730036,
    "wheelchair": null,
    "diet_vegan": null,
    "addr_city": "New York",
    "timestamp": "2025-10-11T09:27:32.417471"
  },
  {
    "id": 1246261986,
    "name": null,
    "cuisine": null,
    "lat": 43.3055895,
    "lon": -77.702146,
    "wheelchair": null,
    "diet_vegan": null,
    "addr_city": "New York",
    "timestamp": "2025-10-11T09:27:32.417473"
  },
  {
    "id": 1247249650,
    "name": "Brown Hound Downtown",
    "cuisine": "american",
    "lat": 43.1575262,
    "lon": -77.5876677,
    "wheelchair": null,
    "diet_vegan": null,
    "addr_city": "Rochester",
    "timestamp": "2025-10-11T09:27:32.417475"
  },
  {
    "id": 1252974564,
    "name": "Leone's Pizzeria",
    "cuisine": "pizza",
    "lat": 40.7106227,
    "lon": -73.8651011,
    "wheelchair": null,
    "diet_vegan": null,
    "addr_city": "Glendale",
    "timestamp": "2025-10-11T09:27:32.417476"
  },
  {
    "id": 1256201885,
    "name": "Darrow's Resturaunt",
    "cuisine": null,
    "lat": 42.9003878,
    "lon": -78.4965525,
    "wheelchair": null,
    "diet_vegan": null,
    "addr_city": "New York",
    "timestamp": "2025-10-11T09:27:32.417478"
  },
  {
    "id": 1258967256,
    "name": "The Eatery",
    "cuisine": null,
    "lat": 42.6693376,
    "lon": -73.6894601,
    "wheelchair": null,
    "diet_vegan": null,
    "addr_city": "New York",
    "timestamp": "2025-10-11T09:27:32.417479"
  },
  {
    "id": 1263485979,
    "name": "Northeast Chinese II",
    "cuisine": "chinese",
    "lat": 42.6796382,
    "lon": -73.7913027,
    "wheelchair": null,
    "diet_vegan": null,
    "addr_city": "New York",
    "timestamp": "2025-10-11T09:27:32.417481"
  },
  {
    "id": 1266105723,
    "name": "Milas Restaurant & Bar",
    "cuisine": null,
    "lat": 42.8117957,
    "lon": -73.9406883,
    "wheelchair": null,
    "diet_vegan": null,
    "addr_city": "Schenectady",
    "timestamp": "2025-10-11T09:27:32.417482"
  },
  {
    "id": 1271337273,
    "name": "The Hideaway",
    "cuisine": "american",
    "lat": 43.1505519,
    "lon": -77.5905947,
    "wheelchair": null,
    "diet_vegan": null,
    "addr_city": "Rochester",
    "timestamp": "2025-10-11T09:27:32.417484"
  },
  {
    "id": 1271365247,
    "name": "Dorado",
    "cuisine": "mexican",
    "lat": 43.1480731,
    "lon": -77.5772413,
    "wheelchair": null,
    "diet_vegan": null,
    "addr_city": "Rochester",
    "timestamp": "2025-10-11T09:27:32.417486"
  },
  {
    "id": 1271365248,
    "name": "Furoshiki",
    "cuisine": "asian",
    "lat": 43.14814,
    "lon": -77.5774683,
    "wheelchair": null,
    "diet_vegan": "yes",
    "addr_city": "Rochester",
    "timestamp": "2025-10-11T09:27:32.417488"
  },
  {
    "id": 1271365250,
    "name": "Vern's",
    "cuisine": "italian",
    "lat": 43.1480343,
    "lon": -77.5770794,
    "wheelchair": null,
    "diet_vegan": null,
    "addr_city": "New York",
    "timestamp": "2025-10-11T09:27:32.417489"
  },
  {
    "id": 1271365251,
    "name": "Nathan's Soups",
    "cuisine": null,
    "lat": 43.1478406,
    "lon": -77.5771854,
    "wheelchair": null,
    "diet_vegan": null,
    "addr_city": "New York",
    "timestamp": "2025-10-11T09:27:32.417491"
  },
  {
    "id": 1271365259,
    "name": "Roux",
    "cuisine": "french",
    "lat": 43.1481106,
    "lon": -77.5773758,
    "wheelchair": null,
    "diet_vegan": null,
    "addr_city": "Rochester",
    "timestamp": "2025-10-11T09:27:32.417493"
  },
  {
    "id": 1272678894,
    "name": "Mezcal's",
    "cuisine": "mexican",
    "lat": 40.6758313,
    "lon": -73.9807001,
    "wheelchair": null,
    "diet_vegan": null,
    "addr_city": "New York",
    "timestamp": "2025-10-11T09:27:32.417495"
  },
  {
    "id": 1272678896,
    "name": "Shaking Crab",
    "cuisine": "seafood",
    "lat": 40.6757312,
    "lon": -73.9810959,
    "wheelchair": "limited",
    "diet_vegan": null,
    "addr_city": "New York",
    "timestamp": "2025-10-11T09:27:32.417496"
  },
  {
    "id": 1273085863,
    "name": "Blue Stone",
    "cuisine": "american",
    "lat": 42.1207701,
    "lon": -73.99036,
    "wheelchair": null,
    "diet_vegan": null,
    "addr_city": "New York",
    "timestamp": "2025-10-11T09:27:32.417498"
  },
  {
    "id": 1276593526,
    "name": "The Village Diner",
    "cuisine": "regional",
    "lat": 44.6703337,
    "lon": -74.9900898,
    "wheelchair": null,
    "diet_vegan": null,
    "addr_city": "New York",
    "timestamp": "2025-10-11T09:27:32.417500"
  },
  {
    "id": 1283210841,
    "name": "Gregario's",
    "cuisine": null,
    "lat": 42.9457034,
    "lon": -78.4846598,
    "wheelchair": null,
    "diet_vegan": null,
    "addr_city": "New York",
    "timestamp": "2025-10-11T09:27:32.417503"
  },
  {
    "id": 1290043792,
    "name": "Four Seasons",
    "cuisine": "new_american",
    "lat": 40.7580948,
    "lon": -73.9720223,
    "wheelchair": null,
    "diet_vegan": null,
    "addr_city": "New York",
    "timestamp": "2025-10-11T09:27:32.417505"
  },
  {
    "id": 1293173596,
    "name": "Marchi's",
    "cuisine": "italian",
    "lat": 40.7431603,
    "lon": -73.9775799,
    "wheelchair": "no",
    "diet_vegan": null,
    "addr_city": "New York",
    "timestamp": "2025-10-11T09:27:32.417507"
  },
  {
    "id": 1296303399,
    "name": "Mama Napoli",
    "cuisine": "italian",
    "lat": 43.1687913,
    "lon": -77.7043852,
    "wheelchair": null,
    "diet_vegan": null,
    "addr_city": "Rochester",
    "timestamp": "2025-10-11T09:27:32.417508"
  },
  {
    "id": 1297282272,
    "name": "Pando Park",
    "cuisine": "american",
    "lat": 40.7449757,
    "lon": -73.9831065,
    "wheelchair": null,
    "diet_vegan": null,
    "addr_city": "New York",
    "timestamp": "2025-10-11T09:27:32.417510"
  },
  {
    "id": 1302000245,
    "name": "O'Malley's Cabin On The Lake",
    "cuisine": "regional",
    "lat": 42.6396361,
    "lon": -76.6929488,
    "wheelchair": null,
    "diet_vegan": null,
    "addr_city": "New York",
    "timestamp": "2025-10-11T09:27:32.417511"
  },
  {
    "id": 1302000286,
    "name": "Sheldrake Point Winery",
    "cuisine": null,
    "lat": 42.663307,
    "lon": -76.7013845,
    "wheelchair": null,
    "diet_vegan": null,
    "addr_city": "New York",
    "timestamp": "2025-10-11T09:27:32.417513"
  },
  {
    "id": 1305383778,
    "name": "Village Coal Tower Restaurant",
    "cuisine": "american",
    "lat": 43.0921759,
    "lon": -77.5127801,
    "wheelchair": "yes",
    "diet_vegan": null,
    "addr_city": "Pittsford",
    "timestamp": "2025-10-11T09:27:32.417515"
  },
  {
    "id": 1311052738,
    "name": "Ph\u01a1\u0309 Yum",
    "cuisine": "vietnamese",
    "lat": 42.7150744,
    "lon": -73.8305971,
    "wheelchair": null,
    "diet_vegan": null,
    "addr_city": "New York",
    "timestamp": "2025-10-11T09:27:32.417516"
  },
  {
    "id": 1311895934,
    "name": "Genova's Pizzeria",
    "cuisine": "pizza",
    "lat": 40.5863491,
    "lon": -73.6867595,
    "wheelchair": null,
    "diet_vegan": null,
    "addr_city": "New York",
    "timestamp": "2025-10-11T09:27:32.417518"
  },
  {
    "id": 1311896175,
    "name": "Mateo's",
    "cuisine": "italian",
    "lat": 40.5861637,
    "lon": -73.68673,
    "wheelchair": null,
    "diet_vegan": null,
    "addr_city": "New York",
    "timestamp": "2025-10-11T09:27:32.417520"
  },
  {
    "id": 1315133422,
    "name": "Polish Villa II",
    "cuisine": null,
    "lat": 42.8726092,
    "lon": -78.7861293,
    "wheelchair": null,
    "diet_vegan": null,
    "addr_city": "Buffalo",
    "timestamp": "2025-10-11T09:27:32.417522"
  },
  {
    "id": 1317799414,
    "name": "Kismet Mediterranean Grill",
    "cuisine": "mediterranean",
    "lat": 42.6662098,
    "lon": -73.7921254,
    "wheelchair": null,
    "diet_vegan": null,
    "addr_city": "Albany",
    "timestamp": "2025-10-11T09:27:32.417523"
  },
  {
    "id": 1317799420,
    "name": "Junior's Bar & Grill",
    "cuisine": null,
    "lat": 42.6659505,
    "lon": -73.7916866,
    "wheelchair": null,
    "diet_vegan": null,
    "addr_city": "Albany",
    "timestamp": "2025-10-11T09:27:32.417525"
  },
  {
    "id": 1319319194,
    "name": "Ophelia's on Broadway",
    "cuisine": null,
    "lat": 42.6477355,
    "lon": -73.7506517,
    "wheelchair": null,
    "diet_vegan": null,
    "addr_city": "Albany",
    "timestamp": "2025-10-11T09:27:32.417527"
  },
  {
    "id": 1324269488,
    "name": "Catherine's in the Park",
    "cuisine": null,
    "lat": 43.0542819,
    "lon": -73.7975065,
    "wheelchair": null,
    "diet_vegan": null,
    "addr_city": "New York",
    "timestamp": "2025-10-11T09:27:32.417528"
  },
  {
    "id": 1324269785,
    "name": "Concessions",
    "cuisine": null,
    "lat": 43.0542729,
    "lon": -73.8050916,
    "wheelchair": null,
    "diet_vegan": null,
    "addr_city": "New York",
    "timestamp": "2025-10-11T09:27:32.417530"
  },
  {
    "id": 1328166246,
    "name": "Bill Gray's",
    "cuisine": "burger",
    "lat": 43.1432751,
    "lon": -77.7333107,
    "wheelchair": null,
    "diet_vegan": null,
    "addr_city": "Rochester",
    "timestamp": "2025-10-11T09:27:32.417532"
  },
  {
    "id": 1329146495,
    "name": "Applebee's",
    "cuisine": "american",
    "lat": 43.0710791,
    "lon": -77.4435533,
    "wheelchair": null,
    "diet_vegan": null,
    "addr_city": "New York",
    "timestamp": "2025-10-11T09:27:32.417533"
  },
  {
    "id": 1329146517,
    "name": "Perinton Hots",
    "cuisine": null,
    "lat": 43.0681055,
    "lon": -77.4386759,
    "wheelchair": null,
    "diet_vegan": null,
    "addr_city": "Fairport",
    "timestamp": "2025-10-11T09:27:32.417535"
  },
  {
    "id": 1329146556,
    "name": "Tandoor of India Fairport NY",
    "cuisine": "indian",
    "lat": 43.0705736,
    "lon": -77.4395562,
    "wheelchair": null,
    "diet_vegan": null,
    "addr_city": "Fairport",
    "timestamp": "2025-10-11T09:27:32.417537"
  },
  {
    "id": 1342833524,
    "name": "Blue Star Cafe",
    "cuisine": null,
    "lat": 42.7842661,
    "lon": -73.9299007,
    "wheelchair": null,
    "diet_vegan": null,
    "addr_city": "New York",
    "timestamp": "2025-10-11T09:27:32.417538"
  },
  {
    "id": 1345007690,
    "name": "Martino's",
    "cuisine": "pizza",
    "lat": 43.1788549,
    "lon": -77.7011648,
    "wheelchair": null,
    "diet_vegan": null,
    "addr_city": "New York",
    "timestamp": "2025-10-11T09:27:32.417540"
  },
  {
    "id": 1346364640,
    "name": "Sak's",
    "cuisine": "thai",
    "lat": 43.0654282,
    "lon": -77.4113225,
    "wheelchair": null,
    "diet_vegan": null,
    "addr_city": "Fairport",
    "timestamp": "2025-10-11T09:27:32.417541"
  },
  {
    "id": 1346386984,
    "name": "Smith & Wollensky",
    "cuisine": "steak_house",
    "lat": 40.7552548,
    "lon": -73.9709515,
    "wheelchair": "yes",
    "diet_vegan": null,
    "addr_city": "New York",
    "timestamp": "2025-10-11T09:27:32.417543"
  },
  {
    "id": 1347055580,
    "name": "Tom's Restaurant",
    "cuisine": "brunch",
    "lat": 40.6744702,
    "lon": -73.9633157,
    "wheelchair": null,
    "diet_vegan": null,
    "addr_city": "New York",
    "timestamp": "2025-10-11T09:27:32.417545"
  },
  {
    "id": 1347159298,
    "name": "Bonnie & Clyde",
    "cuisine": null,
    "lat": 43.0999649,
    "lon": -77.4422252,
    "wheelchair": null,
    "diet_vegan": null,
    "addr_city": "New York",
    "timestamp": "2025-10-11T09:27:32.417547"
  },
  {
    "id": 1347159329,
    "name": "Salvatore's Old Fashioned Pizzeria",
    "cuisine": "pizza",
    "lat": 43.1000516,
    "lon": -77.4417652,
    "wheelchair": "no",
    "diet_vegan": null,
    "addr_city": "Fairport",
    "timestamp": "2025-10-11T09:27:32.417548"
  },
  {
    "id": 1347469466,
    "name": null,
    "cuisine": "chinese",
    "lat": 43.1059969,
    "lon": -77.4424017,
    "wheelchair": null,
    "diet_vegan": null,
    "addr_city": "New York",
    "timestamp": "2025-10-11T09:27:32.417550"
  },
  {
    "id": 1347469474,
    "name": "Pizza Chef",
    "cuisine": "pizza",
    "lat": 43.1059084,
    "lon": -77.440931,
    "wheelchair": null,
    "diet_vegan": null,
    "addr_city": "New York",
    "timestamp": "2025-10-11T09:27:32.417552"
  },
  {
    "id": 1347469490,
    "name": "Durf's Family Restaurant",
    "cuisine": null,
    "lat": 43.1063745,
    "lon": -77.4409957,
    "wheelchair": "yes",
    "diet_vegan": null,
    "addr_city": "New York",
    "timestamp": "2025-10-11T09:27:32.417553"
  },
  {
    "id": 1347469506,
    "name": "Mac's Philly Steaks",
    "cuisine": "regional",
    "lat": 43.1038669,
    "lon": -77.4422972,
    "wheelchair": "yes",
    "diet_vegan": null,
    "addr_city": "Fairport",
    "timestamp": "2025-10-11T09:27:32.417555"
  },
  {
    "id": 1347472172,
    "name": "Papa C's Eastside Cafe",
    "cuisine": null,
    "lat": 43.0954491,
    "lon": -77.4238474,
    "wheelchair": null,
    "diet_vegan": null,
    "addr_city": "New York",
    "timestamp": "2025-10-11T09:27:32.417556"
  },
  {
    "id": 1348884682,
    "name": "Elite Palace",
    "cuisine": "international",
    "lat": 40.7363704,
    "lon": -73.8954454,
    "wheelchair": null,
    "diet_vegan": null,
    "addr_city": "Queens",
    "timestamp": "2025-10-11T09:27:32.417558"
  },
  {
    "id": 1351836006,
    "name": "Pizza Hut",
    "cuisine": "pizza",
    "lat": 42.868215,
    "lon": -78.7003281,
    "wheelchair": null,
    "diet_vegan": null,
    "addr_city": "Depew",
    "timestamp": "2025-10-11T09:27:32.417560"
  },
  {
    "id": 1355629751,
    "name": "Cracker Barrel",
    "cuisine": "american",
    "lat": 43.9875232,
    "lon": -75.9431754,
    "wheelchair": "yes",
    "diet_vegan": null,
    "addr_city": "New York",
    "timestamp": "2025-10-11T09:27:32.417562"
  },
  {
    "id": 1362703566,
    "name": "Clinton St. Baking Company",
    "cuisine": null,
    "lat": 40.7211788,
    "lon": -73.9838832,
    "wheelchair": null,
    "diet_vegan": null,
    "addr_city": "New York",
    "timestamp": "2025-10-11T09:27:32.417564"
  },
  {
    "id": 1363101720,
    "name": "Life of Pie",
    "cuisine": "pizza",
    "lat": 44.1842093,
    "lon": -73.4355837,
    "wheelchair": null,
    "diet_vegan": null,
    "addr_city": "New York",
    "timestamp": "2025-10-11T09:27:32.417565"
  },
  {
    "id": 1363137545,
    "name": "Capital City Diner",
    "cuisine": null,
    "lat": 42.6885331,
    "lon": -73.8596911,
    "wheelchair": null,
    "diet_vegan": null,
    "addr_city": "New York",
    "timestamp": "2025-10-11T09:27:32.417567"
  },
  {
    "id": 1366295389,
    "name": "The Local 217",
    "cuisine": null,
    "lat": 42.6517334,
    "lon": -73.7677813,
    "wheelchair": null,
    "diet_vegan": null,
    "addr_city": "New York",
    "timestamp": "2025-10-11T09:27:32.417568"
  },
  {
    "id": 1379410005,
    "name": "Stromboli Pizza",
    "cuisine": "pizza",
    "lat": 40.7277727,
    "lon": -73.985401,
    "wheelchair": null,
    "diet_vegan": null,
    "addr_city": "New York",
    "timestamp": "2025-10-11T09:27:32.417570"
  },
  {
    "id": 1383914860,
    "name": "The Breslin",
    "cuisine": "gastropub",
    "lat": 40.7456818,
    "lon": -73.9881244,
    "wheelchair": "yes",
    "diet_vegan": null,
    "addr_city": "New York",
    "timestamp": "2025-10-11T09:27:32.417572"
  },
  {
    "id": 1383927735,
    "name": "Blue Ribbon",
    "cuisine": null,
    "lat": 40.7675881,
    "lon": -73.9831167,
    "wheelchair": null,
    "diet_vegan": null,
    "addr_city": "New York",
    "timestamp": "2025-10-11T09:27:32.417573"
  },
  {
    "id": 1383928351,
    "name": "Sushi Damo",
    "cuisine": "japanese",
    "lat": 40.7677295,
    "lon": -73.9834926,
    "wheelchair": "yes",
    "diet_vegan": null,
    "addr_city": "New York",
    "timestamp": "2025-10-11T09:27:32.417577"
  },
  {
    "id": 1383955419,
    "name": "USA Brooklyn Delicatessen",
    "cuisine": "sandwich; pizza",
    "lat": 40.7653848,
    "lon": -73.980359,
    "wheelchair": null,
    "diet_vegan": null,
    "addr_city": "New York",
    "timestamp": "2025-10-11T09:27:32.417578"
  },
  {
    "id": 1383955759,
    "name": "Carnegie Diner & Cafe",
    "cuisine": "burger;sandwich;coffee_shop;ice_cream;american;pancake",
    "lat": 40.7657283,
    "lon": -73.9801012,
    "wheelchair": null,
    "diet_vegan": "yes",
    "addr_city": "New York",
    "timestamp": "2025-10-11T09:27:32.417581"
  },
  {
    "id": 1383956543,
    "name": "Brooklyn Diner",
    "cuisine": "diner",
    "lat": 40.7656073,
    "lon": -73.9808744,
    "wheelchair": "no",
    "diet_vegan": null,
    "addr_city": "New York",
    "timestamp": "2025-10-11T09:27:32.417583"
  },
  {
    "id": 1383956544,
    "name": "Hooters",
    "cuisine": "burger",
    "lat": 40.7654347,
    "lon": -73.9813709,
    "wheelchair": null,
    "diet_vegan": null,
    "addr_city": "New York",
    "timestamp": "2025-10-11T09:27:32.417584"
  },
  {
    "id": 1383956764,
    "name": "Petrossian",
    "cuisine": null,
    "lat": 40.7660154,
    "lon": -73.9794173,
    "wheelchair": null,
    "diet_vegan": null,
    "addr_city": "New York",
    "timestamp": "2025-10-11T09:27:32.417586"
  },
  {
    "id": 1383956828,
    "name": "Farinella",
    "cuisine": "pizza",
    "lat": 40.7671365,
    "lon": -73.9814703,
    "wheelchair": "yes",
    "diet_vegan": null,
    "addr_city": "New York",
    "timestamp": "2025-10-11T09:27:32.417588"
  },
  {
    "id": 1386799927,
    "name": "Chuckie's Texas Hots",
    "cuisine": null,
    "lat": 42.8446593,
    "lon": -78.8235687,
    "wheelchair": null,
    "diet_vegan": null,
    "addr_city": "New York",
    "timestamp": "2025-10-11T09:27:32.417589"
  },
  {
    "id": 1391611963,
    "name": "Herbie's Burgers",
    "cuisine": "burger",
    "lat": 42.6563391,
    "lon": -73.7635757,
    "wheelchair": null,
    "diet_vegan": null,
    "addr_city": "Albany",
    "timestamp": "2025-10-11T09:27:32.417591"
  },
  {
    "id": 1391632997,
    "name": "Mr Halal",
    "cuisine": null,
    "lat": 42.6400325,
    "lon": -73.7841579,
    "wheelchair": null,
    "diet_vegan": null,
    "addr_city": "New York",
    "timestamp": "2025-10-11T09:27:32.417593"
  },
  {
    "id": 1392691460,
    "name": "Tea House Asian Bistro",
    "cuisine": null,
    "lat": 42.6255287,
    "lon": -73.8228322,
    "wheelchair": null,
    "diet_vegan": null,
    "addr_city": "New York",
    "timestamp": "2025-10-11T09:27:32.417594"
  },
  {
    "id": 1393176661,
    "name": "South Troy Diner",
    "cuisine": "diner",
    "lat": 42.7083944,
    "lon": -73.6975869,
    "wheelchair": null,
    "diet_vegan": null,
    "addr_city": "New York",
    "timestamp": "2025-10-11T09:27:32.417596"
  },
  {
    "id": 1396581104,
    "name": "Hoy Wong Restaurant",
    "cuisine": null,
    "lat": 40.7166141,
    "lon": -73.998003,
    "wheelchair": null,
    "diet_vegan": null,
    "addr_city": "New York",
    "timestamp": "2025-10-11T09:27:32.417598"
  },
  {
    "id": 1400582166,
    "name": "The Copper Crow",
    "cuisine": null,
    "lat": 42.6612266,
    "lon": -73.7450506,
    "wheelchair": null,
    "diet_vegan": null,
    "addr_city": "New York",
    "timestamp": "2025-10-11T09:27:32.417600"
  },
  {
    "id": 1402294049,
    "name": "Auction Barn Restaurant",
    "cuisine": null,
    "lat": 43.1626629,
    "lon": -73.5041349,
    "wheelchair": null,
    "diet_vegan": null,
    "addr_city": "New York",
    "timestamp": "2025-10-11T09:27:32.417601"
  },
  {
    "id": 1402294213,
    "name": "Chrissys Cravings",
    "cuisine": null,
    "lat": 42.8973318,
    "lon": -73.5860603,
    "wheelchair": null,
    "diet_vegan": null,
    "addr_city": "New York",
    "timestamp": "2025-10-11T09:27:32.417603"
  },
  {
    "id": 1402941945,
    "name": "Bistro Brie & Bordeaux",
    "cuisine": null,
    "lat": 42.3073418,
    "lon": -74.2524704,
    "wheelchair": null,
    "diet_vegan": null,
    "addr_city": "Windham",
    "timestamp": "2025-10-11T09:27:32.417604"
  },
  {
    "id": 1404733940,
    "name": "Salsa Latina",
    "cuisine": "latin_american;mexican;peruvian",
    "lat": 42.6570273,
    "lon": -73.8027155,
    "wheelchair": null,
    "diet_vegan": null,
    "addr_city": "Albany",
    "timestamp": "2025-10-11T09:27:32.417606"
  },
  {
    "id": 1404733943,
    "name": "Ya Hala Halal",
    "cuisine": null,
    "lat": 42.656978,
    "lon": -73.8025881,
    "wheelchair": null,
    "diet_vegan": null,
    "addr_city": "Albany",
    "timestamp": "2025-10-11T09:27:32.417609"
  },
  {
    "id": 1404738515,
    "name": "Elhariri Hot Food",
    "cuisine": null,
    "lat": 42.6603223,
    "lon": -73.7825399,
    "wheelchair": null,
    "diet_vegan": null,
    "addr_city": "New York",
    "timestamp": "2025-10-11T09:27:32.417610"
  },
  {
    "id": 1404738540,
    "name": "Madison's Pizza",
    "cuisine": "pizza",
    "lat": 42.6605985,
    "lon": -73.7822633,
    "wheelchair": null,
    "diet_vegan": null,
    "addr_city": "Albany",
    "timestamp": "2025-10-11T09:27:32.417612"
  },
  {
    "id": 1404742758,
    "name": "Mr. Pio Pio",
    "cuisine": "spanish",
    "lat": 42.663007,
    "lon": -73.7758583,
    "wheelchair": null,
    "diet_vegan": null,
    "addr_city": "Albany",
    "timestamp": "2025-10-11T09:27:32.417614"
  },
  {
    "id": 1404744870,
    "name": "New No. 1 Chinese Restaurant",
    "cuisine": "chinese",
    "lat": 42.6396814,
    "lon": -73.7851246,
    "wheelchair": null,
    "diet_vegan": null,
    "addr_city": "New York",
    "timestamp": "2025-10-11T09:27:32.417616"
  },
  {
    "id": 1404744883,
    "name": "Sweet Basil",
    "cuisine": "thai",
    "lat": 42.6414236,
    "lon": -73.7804094,
    "wheelchair": null,
    "diet_vegan": null,
    "addr_city": "New York",
    "timestamp": "2025-10-11T09:27:32.417617"
  },
  {
    "id": 1404775799,
    "name": "Skinny Pancake",
    "cuisine": null,
    "lat": 42.6518329,
    "lon": -73.7515469,
    "wheelchair": null,
    "diet_vegan": null,
    "addr_city": "Albany",
    "timestamp": "2025-10-11T09:27:32.417619"
  },
  {
    "id": 1404775802,
    "name": "Shalimar",
    "cuisine": "indian",
    "lat": 42.6494774,
    "lon": -73.7509029,
    "wheelchair": null,
    "diet_vegan": null,
    "addr_city": "Albany",
    "timestamp": "2025-10-11T09:27:32.417621"
  },
  {
    "id": 1404775808,
    "name": "Lunch",
    "cuisine": null,
    "lat": 42.6502113,
    "lon": -73.7509943,
    "wheelchair": null,
    "diet_vegan": null,
    "addr_city": "Albany",
    "timestamp": "2025-10-11T09:27:32.417622"
  },
  {
    "id": 1404775814,
    "name": "Viva Empanadas",
    "cuisine": "latin_american;empanada",
    "lat": 42.6525391,
    "lon": -73.7510426,
    "wheelchair": null,
    "diet_vegan": null,
    "addr_city": "Albany",
    "timestamp": "2025-10-11T09:27:32.417624"
  },
  {
    "id": 1404775818,
    "name": "Lidia's Pizza",
    "cuisine": "pizza",
    "lat": 42.6520341,
    "lon": -73.7504472,
    "wheelchair": null,
    "diet_vegan": null,
    "addr_city": "New York",
    "timestamp": "2025-10-11T09:27:32.417625"
  },
  {
    "id": 1404775862,
    "name": "Capitol House",
    "cuisine": "asian",
    "lat": 42.6507439,
    "lon": -73.7517668,
    "wheelchair": null,
    "diet_vegan": null,
    "addr_city": "Albany",
    "timestamp": "2025-10-11T09:27:32.417627"
  },
  {
    "id": 1404775870,
    "name": "Miranda's Deli",
    "cuisine": null,
    "lat": 42.6520553,
    "lon": -73.7504911,
    "wheelchair": null,
    "diet_vegan": null,
    "addr_city": "New York",
    "timestamp": "2025-10-11T09:27:32.417628"
  },
  {
    "id": 1404775893,
    "name": "Burrito Joe's",
    "cuisine": "mexican",
    "lat": 42.6524405,
    "lon": -73.751461,
    "wheelchair": null,
    "diet_vegan": null,
    "addr_city": "Albany",
    "timestamp": "2025-10-11T09:27:32.417630"
  },
  {
    "id": 1404775894,
    "name": "Jonathan's Pizza",
    "cuisine": "pizza",
    "lat": 42.650665,
    "lon": -73.7518258,
    "wheelchair": null,
    "diet_vegan": null,
    "addr_city": "New York",
    "timestamp": "2025-10-11T09:27:32.417632"
  },
  {
    "id": 1404794811,
    "name": "Davidson Brothers Brewing Company",
    "cuisine": null,
    "lat": 43.3096815,
    "lon": -73.6447684,
    "wheelchair": "yes",
    "diet_vegan": null,
    "addr_city": "Glens Falls",
    "timestamp": "2025-10-11T09:27:32.417634"
  },
  {
    "id": 1404794872,
    "name": "Downtown Social",
    "cuisine": null,
    "lat": 43.3097986,
    "lon": -73.6449508,
    "wheelchair": null,
    "diet_vegan": null,
    "addr_city": "Glens Falls",
    "timestamp": "2025-10-11T09:27:32.417635"
  },
  {
    "id": 1408893552,
    "name": "Van's Vietnamese",
    "cuisine": "vietnamese",
    "lat": 42.6647219,
    "lon": -73.7721471,
    "wheelchair": null,
    "diet_vegan": null,
    "addr_city": "New York",
    "timestamp": "2025-10-11T09:27:32.417639"
  },
  {
    "id": 1410484907,
    "name": "Giuseppe's Pizzeria",
    "cuisine": "pizza",
    "lat": 42.7133076,
    "lon": -76.4218163,
    "wheelchair": null,
    "diet_vegan": null,
    "addr_city": "Moravia",
    "timestamp": "2025-10-11T09:27:32.417641"
  },